     2.11           OBSERVATION DATA    G (GPS)             RINEX VERSION / TYPE
teqc  2016Apr1      bjfs                20200102 00:25:04UTCPGM / RUN BY / DATE
Linux 2.4.21-27.ELsmp|Opteron|gcc|Linux x86_64|=+           COMMENT
BIT 2 OF LLI FLAGS DATA COLLECTED UNDER A/S CONDITION       COMMENT
BJFS                                                        MARKER NAME
21601M001                                                   MARKER NUMBER
GNSS Observer       CASM                                    OBSERVER / AGENCY
5310K42306          TRIMBLE NETR9       4.85                REC # / TYPE / VERS
5317361110          TRM59900.00     SCIS                    ANT # / TYPE
 -2148744.6531  4426641.5827  4044656.5218                  APPROX POSITION XYZ
        0.0465        0.0000        0.0000                  ANTENNA: DELTA H/E/N
     1     1                                                WAVELENGTH FACT L1/2
     7    L1    L2    C1    P1    P2    S1    S2            # / TYPES OF OBSERV
    18                                                      LEAP SECONDS
 SNR is mapped to RINEX snr flag value [0-9]                COMMENT
  L1 & L2: min(max(int(snr_dBHz/6), 0), 9)                  COMMENT
  2020     1     1     0     0    0.0000000     GPS         TIME OF FIRST OBS
                                                            END OF HEADER
 20  1  1  0  0  0.0000000  0  9G05G13G29G30G24G20G15G21G02
 113986897.215 8  88820985.99246  21690985.055                    21690989.000
        48.800          38.700
 106699782.773 8  83142609.45747  20304267.891                    20304271.758
        49.100          44.600
 117116665.612 8  91259763.40845  22286562.039                    22286567.648
        48.300          35.700
 125268980.263 6  97612253.53443  23837902.133                    23837909.234
        37.900          22.600
 130209593.95915 101462066.76653  24778064.063                    24778073.316
        33.700          18.600
 128556955.77515 100174300.32352  24463584.719                    24463588.102
        33.700          16.300
 106302507.525 8  82833134.72147  20228692.656                    20228697.145
        52.500          45.800
 122039819.748 7  95095981.13344  23223408.063                    23223411.270
        44.100          29.700
 124793462.992 6  97241669.74943  23747407.180                    23747410.492
        38.900          23.800
 20  1  1  0  0 30.0000000  0  9G05G13G29G30G24G20G15G21G02
 114046205.526 8  88867200.25746  21702270.813                    21702275.953
        48.600          39.300
 106724506.346 8  83161874.59047  20308972.742                    20308976.422
        49.600          44.300
 117184745.564 7  91312812.70745  22299517.297                    22299522.441
        47.400          35.500
 125304634.588 6  97640036.11944  23844687.203                    23844694.445
        37.600          24.200
 130096965.918 5 101374304.71342  24756632.547                    24756640.684
        34.100          17.800
 128469603.29715 100106233.53052  24446961.188                    24446966.078
        33.500          16.300
 106266195.609 8  82804839.73247  20221782.602                    20221787.098
        51.900          45.900
 121962309.728 7  95035583.71145  23208657.914                    23208661.711
        44.200          30.200
 124889624.336 6  97316600.63744  23765706.047                    23765709.043
        39.500          24.900
 20  1  1  0  1  0.0000000  0  9G05G13G29G30G24G20G15G21G02
 114105695.842 8  88913556.34246  21713591.461                    21713595.863
        48.200          38.800
 106749759.455 8  83181552.34147  20313778.242                    20313782.148
        48.800          43.700
 117253249.650 8  91366192.49245  22312553.172                    22312558.586
        48.000          34.800
 125340800.491 6  97668217.31944  23851569.320                    23851576.527
        39.000          24.700
 129984269.76215 101286489.56053  24735185.945                    24735195.711
        32.600          18.600
 128382254.690 5 100038169.64842  24430338.672                    24430343.516
        33.200          16.900
 106230390.875 8  82776939.94247  20214969.445                    20214973.770
        52.100          45.600
 121884979.604 7  94975326.46444  23193942.648                    23193945.957
        44.600          29.100
 124986002.476 6  97391700.46144  23784046.461                    23784049.191
        40.000          25.500
 20  1  1  0  1 30.0000000  0  9G05G13G29G30G24G20G15G21G02
 114165366.078 8  88960052.61646  21724946.703                    21724950.977
        48.700          39.200
 106775538.592 8  83201639.98347  20318683.672                    20318687.777
        49.100          44.000
 117322173.129 7  91419899.08945  22325669.094                    22325674.102
        47.900          35.200
 125377474.863 6  97696794.76544  23858547.750                    23858555.063
        38.900          26.800
 129871505.884 5 101198621.60442  24713728.484                    24713736.809
        31.800          17.400
 128294908.606 5  99970107.81442  24413718.453                    24413721.535
        33.200          16.300
 106195091.769 8  82749434.14747  20208252.031                    20208256.324
        52.300          45.800
 121807829.442 7  94915209.44145  23179261.297                    23179265.215
        44.100          30.400
 125082593.813 6  97466966.39444  23802427.203                    23802430.199
        40.400          24.000
 20  1  1  0  2  0.0000000  0  9G05G13G29G30G24G20G15G21G02
 114225221.058 8  89006692.86946  21736336.500                    21736340.891
        48.200          38.900
 106801847.541 8  83222140.47547  20323689.984                    20323694.094
        48.800          43.200
 117391518.388 8  91473934.33646  22338864.836                    22338870.316
        48.300          36.100
 125414662.171 6  97725771.87343  23865624.500                    23865631.504
        39.700          23.800
 129758682.539 5 101110707.36443  24692258.789                    24692267.504
        32.500          19.600
 128207570.66715  99902052.21352  24397098.477                    24397101.711
        33.100          15.600
 106160303.371 8  82722326.31247  20201632.164                    20201636.184
        51.400          45.700
 121730866.610 7  94855238.39944  23164615.172                    23164619.426
        44.600          29.900
 125179401.763 6  97542401.14744  23820848.352                    23820852.207
        39.200          24.300
 20  1  1  0  2 30.0000000  0  9G05G13G29G30G24G20G15G21G02
 114285253.303 8  89053471.22446  21747760.555                    21747764.902
        48.600          38.700
 106828678.037 8  83243047.35647  20328795.523                    20328799.543
        48.700          44.300
 117461275.353 7  91528290.38946  22352139.547                    22352145.223
        47.800          36.300
 125452354.612 6  97755142.60944  23872796.797                    23872804.156
        38.600          26.000
 129645795.507 5 101022743.47742  24670777.102                    24670784.926
        32.500          17.800
 128120234.37715  99833998.00252  24380478.945                    24380482.332
        33.600          16.900
 106126019.483 8  82695611.59947  20195107.953                    20195112.410
        51.500          45.900
 121654086.460 7  94795409.70445  23150004.969                    23150008.594
        43.400          30.900
 125276417.907 6  97617998.09344  23839310.570                    23839314.332
        40.500          24.600
 20  1  1  0  3  0.0000000  0  9G05G13G29G30G24G20G15G21G02
 114345465.436 8  89100389.75246  21759218.297                    21759222.844
        48.200          37.700
 106856031.202 8  83264361.51347  20334000.695                    20334004.875
        48.800          42.600
 117531444.221 7  91582967.41445  22365492.281                    22365497.152
        47.300          34.400
 125490553.829 6  97784908.23643  23880066.734                    23880073.273
        38.300          23.800
 129532849.899 5 100934733.96742  24649284.547                    24649293.023
        32.200          17.800
 128032903.143 5  99765947.66142  24363860.250                    24363864.148
        33.800          16.300
 106092242.615 8  82669291.96547  20188680.469                    20188684.836
        51.800          44.600
 121577493.250 7  94735726.67944  23135430.195                    23135433.543
        44.200          29.400
 125373643.185 6  97693758.02143  23857812.445                    23857815.223
        40.400          22.500
 20  1  1  0  3 30.0000000  0  9G05G13G29G30G24G20G15G21G02
 114405858.918 8  89147449.60346  21770710.836                    21770715.320
        48.800          38.500
 106883906.831 8  83286082.78347  20339305.516                    20339309.563
        48.700          44.200
 117602023.909 8  91637964.55745  22378923.188                    22378928.336
        48.500          35.900
 125529260.675 6  97815069.39944  23887432.313                    23887438.520
        38.600          24.100
 129419850.329 5 100846682.37143  24627781.648                    24627789.559
        33.000          18.300
 127945578.88315  99697902.81152  24347242.805                    24347246.891
        33.500          15.600
 106058974.902 8  82643369.07647  20182350.102                    20182353.965
        51.400          46.300
 121501091.051 7  94676192.48745  23120891.000                    23120894.738
        44.200          31.600
 125471077.867 6  97769681.11744  23876353.430                    23876355.926
        41.100          24.500
 20  1  1  0  4  0.0000000  0  9G05G13G29G30G24G20G15G21G02
 114466430.004 8  89194647.83946  21782237.508                    21782241.887
        48.100          37.500
 106912300.637 8  83308207.83047  20344708.359                    20344712.395
        48.600          43.200
 117673008.132 8  91693276.91645  22392431.086                    22392436.211
        48.200          35.300
 125568470.901 6  97845622.83944  23894894.000                    23894900.258
        38.400          25.300
 129306796.77015 100758588.76852  24606267.266                    24606275.594
        33.300          16.900
 127858259.048 5  99629861.33742  24330627.211                    24330629.988
        34.600          16.900
 106026212.952 8  82617840.28647  20176115.625                    20176119.898
        51.400          45.400
 121424878.701 7  94616806.23745  23106388.211                    23106392.164
        44.500          30.400
 125568716.933 6  97845763.48244  23894933.172                    23894936.559
        40.300          24.300
 20  1  1  0  4 30.0000000  0  9G05G13G29G30G24G20G15G21G02
 114527183.221 8  89241987.99546  21793798.117                    21793802.453
        48.100          38.300
 106941215.478 8  83330738.87447  20350210.766                    20350214.883
        48.700          44.100
 117744398.837 8  91748906.00745  22406015.992                    22406021.207
        48.200          35.700
 125608188.079 6  97876571.26944  23902451.039                    23902457.992
        38.200          24.700
 129193695.850 5 100670458.23842  24584744.633                    24584753.836
        32.500          16.300
 127770948.55215  99561827.20153  24314012.086                    24314015.688
        34.700          18.300
 105993961.658 8  82592709.41347  20169978.336                    20169982.414
        51.600          46.300
 121348862.440 7  94557572.78045  23091923.008                    23091927.195
        44.100          31.800
 125666563.241 6  97922007.32044  23913553.531                    23913556.078
        39.800          24.100
 20  1  1  0  5  0.0000000  0  9G05G13G29G30G24G20G15G21G02
 114588111.840 8  89289464.84646  21805392.609                    21805396.625
        48.000          38.500
 106970642.982 8  83353669.39047  20355810.961                    20355814.391
        48.800          43.900
 117816186.429 7  91804844.36645  22419676.711                    22419681.762
        47.900          35.300
 125648404.657 6  97907908.84644  23910104.156                    23910111.887
        37.700          26.400
 129080543.837 5 100582287.88643  24563213.078                    24563220.969
        33.500          18.300
 127683641.559 5  99493795.79642  24297398.156                    24297402.242
        35.300          16.900
 105962214.499 8  82567971.36347  20163937.258                    20163941.441
        51.600          46.100
 121273038.010 7  94498488.80345  23077494.273                    23077497.824
        44.600          31.400
 125764608.417 6  97998406.15143  23932210.531                    23932213.816
        40.300          22.800
 20  1  1  0  5 30.0000000  0  9G05G13G29G30G24G20G15G21G02
 114649220.403 8  89337081.88846  21817021.133                    21817025.930
        48.300          38.000
 107000586.968 8  83377002.36647  20361508.766                    20361512.809
        48.600          44.300
 117888372.969 8  91861093.58745  22433413.609                    22433418.422
        48.300          34.800
 125689124.660 6  97939638.71144  23917853.336                    23917859.977
        38.300          25.000
 128967348.812 5 100494084.02443  24541672.711                    24541681.109
        32.800          18.300
 127596343.598 5  99425771.39543  24280785.742                    24280789.855
        35.600          19.000
 105930976.654 8  82543630.18647  20157992.602                    20157997.207
        51.700          46.200
 121197412.234 7  94439559.62045  23063103.219                    23063106.383
        44.200          32.200
 125862856.049 6  98074962.69244  23950906.867                    23950910.078
        40.600          25.300
 20  1  1  0  6  0.0000000  0  9G05G13G29G30G24G20G15G21G02
 114710507.636 7  89384838.15146  21828683.344                    21828687.852
        47.800          38.400
 107031044.136 8  83400735.22047  20367304.781                    20367308.578
        48.600          43.400
 117960954.765 8  91917650.81445  22447225.414                    22447230.660
        48.000          35.400
 125730345.788 6  97971759.06144  23925697.688                    23925704.563
        38.800          26.000
 128854112.191 5 100405847.76942  24520123.672                    24520133.168
        33.200          17.400
 127509053.695 5  99357753.30543  24264175.109                    24264179.102
        35.200          18.300
 105900247.224 8  82519685.17447  20152145.141                    20152149.727
        51.400          46.200
 121121986.255 7  94380786.12245  23048750.141                    23048753.723
        45.100          32.600
 125961303.247 6  98151674.78143  23969640.719                    23969643.766
        40.500          23.200
 20  1  1  0  6 30.0000000  0  9G05G13G29G30G24G20G15G21G02
 114771972.652 8  89432732.94646  21840380.086                    21840384.469
        48.200          37.600
 107062012.120 8  83424866.11547  20373197.688                    20373201.531
        49.000          43.600
 118033927.790 8  91974512.88245  22461111.484                    22461116.563
        48.100          35.200
 125772066.313 6  98004268.54444  23933635.969                    23933643.648
        38.800          24.900
 128740836.475 5 100317581.06742  24498568.414                    24498577.957
        34.100          17.400
 127421772.055 6  99289741.60043  24247565.992                    24247570.008
        36.100          19.600
 105870025.361 8  82496135.67147  20146393.750                    20146398.496
        51.400          46.000
 121046760.989 7  94322169.03045  23034435.086                    23034438.273
        44.900          32.100
 126059947.377 6  98228540.34044  23988411.961                    23988415.289
        40.000          24.600
 20  1  1  0  7  0.0000000  0  9G05G13G29G30G24G20G15G21G02
 114833616.398 7  89480767.01846  21852110.250                    21852115.066
        47.900          38.600
 107093491.564 8  83449395.54747  20379188.242                    20379191.938
        48.800          43.900
 118107290.920 7  92031678.92945  22475071.891                    22475077.000
        47.800          34.700
 125814286.828 6  98037167.64644  23941670.813                    23941677.398
        38.800          24.400
 128627525.341 5 100229286.67942  24477006.172                    24477015.215
        34.300          17.800
 127334500.686 5  99221737.96142  24230958.211                    24230962.563
        35.400          17.400
 105840312.963 8  82472983.15147  20140739.805                    20140744.254
        51.600          46.100
 120971740.397 7  94263711.42345  23020159.242                    23020162.641
        44.700          33.200
 126158788.294 6  98305559.18144  24007220.961                    24007224.332
        39.800          24.900
 20  1  1  0  7 30.0000000  0  9G05G13G29G30G24G20G15G21G02
 114895437.025 8  89528938.92346  21863874.320                    21863878.953
        48.000          37.100
 107125478.817 8  83474320.68047  20385275.281                    20385279.344
        49.000          43.700
 118181039.850 8  92089145.60645  22489106.039                    22489111.121
        48.000          34.800
 125857004.461 6  98070454.09844  23949799.227                    23949806.563
        39.000          25.400
 128514180.459 5 100140966.10042  24455438.578                    24455446.020
        34.000          17.800
 127247238.391 5  99153741.39942  24214353.555                    24214356.969
        35.400          17.800
 105811108.144 8  82450226.15347  20135182.570                    20135186.809
        51.300          46.100
 120896924.093 7  94205412.99945  23005922.734                    23005925.773
        45.600          32.600
 126257823.147 6  98382729.17343  24026065.734                    24026069.418
        39.900          23.000
 20  1  1  0  8  0.0000000  0  9G05G13G29G30G24G20G15G21G02
 114957434.392 7  89577248.54446  21875672.086                    21875676.324
        47.600          37.700
 107157971.855 8  83499639.92547  20391458.367                    20391462.324
        48.900          43.800
 118255171.331 7  92146910.37145  22503212.570                    22503217.809
        47.200          34.700
 125900218.030 6  98104127.00344  23958023.211                    23958029.730
        39.100          24.500
 128400804.616 5 100052621.31443  24433862.953                    24433871.184
        33.600          19.000
 127159986.102 5  99085752.59642  24197748.117                    24197753.484
        35.400          17.800
 105782411.071 8  82427864.80047  20129721.844                    20129725.836
        51.300          46.200
 120822315.536 7  94147276.45445  22991724.320                    22991727.887
        45.000          33.200
 126357049.597 6  98460048.47843  24044948.398                    24044951.922
        39.400          22.500
 20  1  1  0  8 30.0000000  0  9G05G13G29G30G24G20G15G21G02
 115019606.808 8  89625694.56646  21887503.281                    21887507.840
        48.100          37.200
 107190967.878 8  83525351.10847  20397737.281                    20397741.215
        49.300          43.700
 118329681.213 7  92204969.99245  22517391.367                    22517396.750
        47.200          34.000
 125943925.318 6  98138184.61744  23966340.523                    23966347.320
        38.900          24.100
 128287399.159 5  99964253.47343  24412283.078                    24412290.641
        33.400          19.600
 127072742.76315  99017770.77152  24181146.539                    24181151.184
        35.900          17.400
 105754220.536 8  82405898.15247  20124356.906                    20124361.355
        51.600          46.200
 120747914.706 7  94089301.77745  22977566.234                    22977570.359
        45.100          32.600
 126456464.920 6  98537514.93543  24063867.258                    24063870.176
        39.900          22.000
 20  1  1  0  9  0.0000000  0  9G05G13G29G30G24G20G15G21G02
 115081954.829 7  89674277.42346  21899367.852                    21899372.551
        47.400          38.200
 107224465.702 8  83551453.30447  20404111.930                    20404115.438
        49.200          43.300
 118404566.790 7  92263322.36145  22531641.586                    22531647.004
        47.600          33.300
 125988125.382 6  98172626.19444  23974751.570                    23974757.723
        39.900          25.100
 128173967.912 5  99875865.55743  24390697.281                    24390705.230
        33.800          20.600
 126985509.073 5  98949796.47543  24164547.797                    24164551.918
        35.700          19.600
 105726536.989 8  82384326.55747  20119089.273                    20119093.508
        51.700          46.200
 120673724.208 7  94031491.00045  22963448.719                    22963452.348
        45.200          33.500
 126556067.631 6  98615127.41243  24082820.789                    24082823.766
        39.300          22.900
 20  1  1  0  9 30.0000000  0  9G05G13G29G30G24G20G15G21G02
 115144479.763 7  89722998.13646  21911265.750                    21911270.648
        47.300          37.000
 107258465.062 8  83577946.31447  20410581.617                    20410585.137
        49.100          43.600
 118479826.825 7  92321966.51145  22545963.531                    22545968.551
        47.400          33.900
 126032818.651 6  98207452.12944  23983255.688                    23983263.023
        39.200          24.700
 128060514.436 5  99787460.22743  24369108.094                    24369115.941
        33.800          19.300
 126898287.66816  98881831.73353  24147951.305                    24147953.695
        36.600          18.600
 105699361.892 8  82363151.16147  20113917.711                    20113922.352
        51.800          46.600
 120599747.843 7  93973847.06945  22949371.320                    22949375.109
        46.000          33.000
 126655857.811 6  98692885.97643  24101809.891                    24101812.992
        39.700          21.500
 20  1  1  0 10  0.0000000  0  9G05G13G29G30G24G20G15G21G02
 115207180.690 7  89771855.98446  21923197.344                    21923201.777
        47.400          37.700
 107292964.332 8  83604828.86347  20417146.508                    20417150.512
        48.900          44.100
 118555458.036 8  92380899.89545  22560355.438                    22560360.449
        48.200          34.700
 126078003.628 6  98242661.16544  23991854.414                    23991861.387
        39.400          26.300
 127947042.197 5  99699040.33843  24347514.914                    24347523.344
        34.000          18.600
 126811078.559 6  98813876.59643  24131354.867                    24131359.188
        37.000          19.000
 105672694.812 8  82342371.62247  20108843.102                    20108847.359
        52.000          46.800
 120525986.994 7  93916371.08645  22935335.430                    22935339.113
        46.300          33.900
 126755833.260 6  98770788.89343  24120834.250                    24120837.766
        38.100          21.100
 20  1  1  0 10 30.0000000  0  9G05G13G29G30G24G20G15G21G02
 115270055.475 7  89820849.30946  21935162.125                    21935166.250
        47.300          37.700
 107327959.799 8  83632098.06347  20423805.992                    20423809.879
        48.900          43.900
 118631455.996 7  92440119.05545  22574817.672                    22574822.590
        47.900          34.200
 126123677.599 6  98278251.28244  24000545.430                    24000552.824
        39.400          24.800
 127833551.667 5  99610606.19943  24325918.219                    24325925.922
        33.900          18.600
 126723880.856 6  98745930.31243  24114761.219                    24114765.949
        37.000          19.000
 105646534.161 8  82321986.70147  20103864.805                    20103869.309
        51.800          46.600
 120452442.152 7  93859063.41245  22921340.281                    22921343.445
        46.500          33.900
 126855990.791 6  98848833.67943  24139894.094                    24139896.965
        38.400          21.700
 20  1  1  0 11  0.0000000  0  9G05G13G29G30G24G20G15G21G02
 115333106.461 7  89869979.92746  21947160.375                    21947164.832
        47.300          37.800
 107363451.806 8  83659754.17347  20430560.016                    20430563.762
        49.300          44.000
 118707819.943 7  92499623.39945  22589349.016                    22589354.645
        47.700          34.700
 126169841.343 6  98314223.02344  24009330.578                    24009337.477
        40.200          25.200
 127720048.222 5  99522161.96643  24304319.320                    24304327.086
        34.500          19.900
 126636697.220 6  98677995.01743  24098171.805                    24098175.730
        37.300          20.100
 105620882.171 8  82301998.14547  20098983.672                    20098987.902
        51.800          46.900
 120379117.695 7  93801927.46645  22907386.445                    22907390.484
        46.200          34.200
 126956330.508 6  98927020.44343  24158987.641                    24158991.160
        38.400          19.900
 20  1  1  0 11 30.0000000  0  9G05G13G29G30G24G20G15G21G02
 115396332.495 7  89919246.95246  21959192.078                    21959196.570
        47.300          37.300
 107399437.475 8  83687794.95447  20437407.570                    20437411.520
        49.100          43.700
 118784545.037 8  92559409.16545  22603949.742                    22603954.832
        48.000          34.300
 126216492.359 6  98350574.44544  24018206.953                    24018215.547
        39.700          25.100
 127606533.56115  99433708.98053  24282718.547                    24282726.141
        35.200          19.600
 126549526.870 6  98610070.09243  24081583.781                    24081588.117
        37.200          19.600
 105595737.353 8  82282404.78847  20094198.656                    20094203.176
        51.900          46.400
 120306013.988 7  93744963.53845  22893475.672                    22893479.004
        45.900          33.800
 127056849.398 6  99005346.83243  24178115.711                    24178118.762
        37.100          19.300
 20  1  1  0 12  0.0000000  0  9G05G13G29G30G24G20G15G21G02
 115459731.435 7  89968648.70446  21971256.008                    21971261.152
        47.200          37.800
 107435913.571 8  83716217.88447  20444348.875                    20444352.324
        49.300          43.900
 118861627.451 7  92619473.35745  22618617.563                    22618622.930
        46.800          34.400
 126263628.123 6  98387303.58944  24027178.086                    24027184.520
        40.000          25.400
 127493008.766 5  99345248.12643  24261114.797                    24261122.719
        35.800          20.900
 126462369.321 6  98542155.12043  24064997.898                    24065002.109
        37.200          20.600
 105571098.258 8  82263205.50047  20089510.273                    20089514.492
        51.800          47.200
 120233132.670 7  93688172.89045  22879607.117                    22879610.602
        47.000          34.000
 127157544.562 6  99083810.57343  24197277.547                    24197280.758
        37.700          20.400
 20  1  1  0 12 30.0000000  0  9G05G13G29G30G24G20G15G21G02
 115523304.040 7  90018185.78646  21983353.422                    21983358.508
        47.200          37.200
 107472879.483 8  83745022.48747  20451383.266                    20451387.332
        49.300          42.800
 118939065.173 7  92679814.40945  22633354.172                    22633358.941
        47.800          34.000
 126311248.202 6  98424410.13243  24036239.336                    24036245.973
        40.200          22.300
 127379478.419 5  99256782.90243  24239511.172                    24239518.805
        35.900          20.100
 126375226.070 6  98474251.27743  24048415.492                    24048419.328
        37.000          20.100
 105546965.794 8  82244400.98547  20084917.898                    20084922.242
        52.100          46.300
 120160476.500 7  93631557.69845  22865780.625                    22865784.617
        46.400          34.100
 127258415.063 6  99162410.89643  24216473.039                    24216475.441
        37.400          19.300
 20  1  1  0 13  0.0000000  0  9G05G13G29G30G24G20G15G21G02
 115587048.980 7  90067857.14646  21995483.664                    21995488.523
        47.500          37.000
 107510332.095 8  83774206.33947  20458510.250                    20458514.285
        48.800          43.700
 119016853.972 8  92740429.03445  22648156.930                    22648161.945
        48.000          34.400
 126359350.157 6  98461892.16344  24045393.180                    24045400.520
        39.600          24.100
 127265943.282 5  99168313.98043  24217906.305                    24217913.789
        35.900          21.100
 126288095.782 6  98406357.56643  24031835.000                    24031839.094
        37.900          21.100
 105523338.696 8  82225990.26447  20080421.773                    20080426.246
        51.800          47.300
 120088045.942 7  93575118.29845  22851997.617                    22852001.484
        46.000          34.800
 127359457.826 5  99241145.47343  24235700.500                    24235703.145
        35.800          19.000
 20  1  1  0 13 30.0000000  0  9G05G13G29G30G24G20G15G21G02
 115650969.046 7  90117664.96646  22007647.375                    22007652.285
        47.300          36.900
 107548272.471 8  83803770.27147  20465729.852                    20465733.984
        49.900          42.300
 119094993.289 7  92801316.80145  22663026.258                    22663031.109
        47.200          32.100
 126407935.558 6  98499750.88543  24054639.109                    24054645.797
        39.400          22.300
 127152409.605 5  99079846.15343  24196301.977                    24196309.586
        35.800          20.400
 126200983.257 6  98338477.65543  24015257.430                    24015262.082
        37.900          19.600
 105500219.489 8  82207975.29947  20076022.539                    20076026.570
        52.600          45.700
 120015846.110 7  93518858.68845  22838258.602                    22838262.512
        46.300          32.600
 127460674.282 6  99320015.42243  24254961.828                    24254964.121
        37.000          18.300
 20  1  1  0 14  0.0000000  0  9G05G13G29G30G24G20G15G21G02
 115715063.612 7  90167608.76046  22019844.453                    22019848.879
        47.300          37.700
 107586698.408 8  83833712.56347  20473042.086                    20473046.316
        49.100          43.400
 119173480.278 7  92862475.46245  22677961.797                    22677966.785
        47.300          34.500
 126457002.735 6  98537985.01344  24063975.563                    24063982.820
        39.100          25.000
 127038880.126 5  98991381.63843  24174698.008                    24174705.777
        35.500          20.400
 126113888.096 6  98270611.27543  23998683.742                    23998688.109
        37.500          19.600
 105477607.827 8  82190355.82147  20071719.211                    20071723.871
        52.700          47.200
 119943878.340 7  93462779.90245  22824563.633                    22824567.387
        45.900          33.600
 127562062.046 5  99399018.82743  24274254.258                    24274257.883
        34.900          19.300
 20  1  1  0 14 30.0000000  0  9G05G13G29G30G24G20G15G21G02
 115779328.649 7  90217685.39046  22032073.234                    22032078.074
        47.500          37.600
 107625604.044 8  83864028.63347  20480445.695                    20480449.785
        49.900          43.000
 119252307.767 7  92923899.46245  22692961.773                    22692967.043
        47.300          34.000
 126506546.441 6  98576590.47843  24073403.406                    24073411.133
        39.100          22.600
 126925353.437 5  98902919.28943  24153093.813                    24153101.496
        35.400          19.900
 126026806.998 6  98202755.91443  23982112.859                    23982117.133
        37.700          19.900
 105455499.550 8  82173128.60247  20067512.352                    20067516.707
        52.400          47.000
 119872141.031 7  93406880.70045  22810912.383                    22810915.965
        46.500          34.400
 127663615.361 5  99478151.22342  24293579.289                    24293582.930
        35.400          17.800
 20  1  1  0 15  0.0000000  0  9G05G13G29G30G24G20G15G21G02
 115843766.028 8  90267896.31746  22044335.359                    22044340.512
        48.600          37.700
 107664990.033 8  83894719.01047  20487940.602                    20487944.789
        48.800          43.000
 119331475.245 7  92985588.37245  22708027.398                    22708031.859
        46.900          33.400
 126556567.607 6  98615567.98343  24082921.898                    24082929.387
        38.900          22.900
 126811835.699 6  98814463.89643  24131492.133                    24131499.965
        36.300          21.500
 125939742.988 6  98134913.82043  23965545.430                    23965549.270
        37.300          19.900
 105433896.917 8  82156295.38247  20063401.594                    20063405.879
        52.000          47.100
 119800639.472 7  93351165.19145  22797305.883                    22797309.633
        46.200          34.000
 127765335.091 5  99557413.36143  24312936.203                    24312939.746
        35.600          19.000
 20  1  1  0 15 30.0000000  0  9G05G13G29G30G24G20G15G21G02
 115908375.057 8  90318241.00646  22056630.141                    22056635.094
        48.400          37.400
 107704853.964 8  83925781.80447  20495526.602                    20495530.313
        49.100          43.900
 119410978.895 7  93047539.24745  22723156.359                    22723161.875
        47.000          34.200
 126607064.444 6  98654916.16744  24092531.109                    24092538.414
        38.200          24.400
 126698328.230 6  98726016.51743  24109892.570                    24109900.414
        36.200          21.300
 125852696.116 6  98067085.08643  23948980.820                    23948984.637
        38.600          19.900
 105412799.052 8  82139855.48547  20059386.555                    20059390.934
        52.300          47.200
 119729374.435 7  93295634.00145  22783744.867                    22783748.316
        45.300          35.200
 127867218.757 5  99636803.16843  24332323.891                    24332327.488
        35.000          19.000
 20  1  1  0 16  0.0000000  0  9G05G13G29G30G24G20G15G21G02
 115973157.809 8  90368721.05346  22068958.328                    22068963.035
        48.400          38.400
 107745196.283 8  83957217.36947  20503203.438                    20503207.414
        49.400          43.900
 119490817.821 7  93109751.37845  22738348.977                    22738354.164
        47.000          33.300
 126658037.590 6  98694635.48144  24102231.258                    24102239.063
        38.700          24.000
 126584836.421 6  98637581.33443  24088295.781                    24088303.863
        36.600          21.100
 125765669.067 6  97999271.78443  23932420.406                    23932423.203
        38.100          20.900
 105392208.085 8  82123810.57447  20055468.367                    20055472.438
        53.100          47.600
 119658349.980 7  93240290.26445  22770229.336                    22770232.906
        45.200          34.400
 127969266.462 5  99716320.77843  24351743.242                    24351747.184
        34.300          18.600
 20  1  1  0 16 30.0000000  0  9G05G13G29G30G24G20G15G21G02
 116038110.155 8  90419333.27446  22081318.063                    22081322.609
        48.400          37.600
 107786011.378 8  83989021.33747  20510970.102                    20510974.340
        50.300          43.500
 119570985.731 7  93172219.85945  22753604.406                    22753609.590
        46.300          33.300
 126709482.106 6  98734722.10643  24112020.891                    24112027.883
        38.600          22.800
 126471359.910 6  98549158.08843  24066701.500                    24066709.301
        36.800          22.000
 125678659.394 6  97931472.02743  23915862.367                    23915866.605
        37.600          20.400
 105372120.038 8  82108157.55647  20051645.617                    20051649.977
        53.000          47.200
 119587565.122 7  93185133.23045  22756759.313                    22756762.992
        45.600          34.300
 128071472.868 5  99795962.10143  24371192.258                    24371195.406
        34.400          18.300
 20  1  1  0 17  0.0000000  0  9G05G13G29G30G24G20G15G21G02
 116103232.298 8  90470077.78846  22093710.367                    22093715.516
        48.900          37.800
 107827297.740 8  84021192.51847  20518826.852                    20518830.980
        49.800          43.300
 119651479.358 7  93234942.14245  22768922.242                    22768927.203
        46.000          32.700
 126761396.826 6  98775175.14043  24121900.305                    24121907.301
        38.900          22.500
 126357901.678 6  98460749.11043  24045111.133                    24045119.387
        37.100          21.800
 125591667.662 6  97863686.28943  23899308.109                    23899311.863
        38.100          19.900
 105352534.872 8  82092896.38947  20047918.711                    20047923.262
        53.200          47.500
 119517021.927 7  93130164.50545  22743335.164                    22743338.918
        45.000          34.800
 128173836.642 5  99875726.06942  24390671.641                    24390675.219
        34.500          17.800
 20  1  1  0 17 30.0000000  0  9G05G13G29G30G24G20G15G21G02
 116168527.300 8  90520957.00246  22106135.656                    22106140.477
        48.800          37.700
 107869056.121 8  84053731.51747  20526772.953                    20526777.012
        49.900          43.400
 119732298.863 7  93297918.35745  22784301.242                    22784306.762
        46.200          32.000
 126813783.282 6  98815995.78143  24131868.977                    24131875.934
        38.800          22.900
 126244467.998 6  98372359.24743  24023524.977                    24023533.648
        37.100          22.000
 125504697.754 6  97795917.53643  23882758.297                    23882762.309
        38.300          20.600
 105333455.475 8  82078029.32547  20044288.133                    20044292.406
        53.400          47.400
 119446725.761 7  93075388.26745  22729958.211                    22729962.152
        45.700          34.900
 128276358.859 5  99955613.44743  24410181.281                    24410185.137
        35.500          18.300
 20  1  1  0 18  0.0000000  0  9G05G13G29G30G24G20G15G21G02
 116233992.989 8  90571969.21246  22118593.352                    22118598.383
        49.200          37.900
 107911283.304 8  84086635.81047  20534808.914                    20534812.625
        50.600          43.100
 119813439.790 7  93361145.02445  22799742.023                    22799747.004
        46.100          31.900
 126866638.360 6  98857181.56043  24141926.906                    24141934.242
        38.400          23.300
 126131059.835 6  98283989.25943  24001944.922                    24001952.871
        36.800          22.300
 125417748.365 6  97728164.78443  23866212.336                    23866216.961
        38.100          20.900
 105314879.685 8  82063554.68447  20040753.203                    20040757.813
        53.500          47.600
 119376676.834 7  93020804.67945  22716628.641                    22716631.848
        45.800          34.700
 128379036.00515 100035621.57553  24429719.391                    24429723.109
        34.300          18.300
 20  1  1  0 18 30.0000000  0  9G05G13G29G30G24G20G15G21G02
 116299627.781 8  90623113.19346  22131083.469                    22131088.109
        49.000          37.600
 107953975.626 8  84119902.55847  20542932.953                    20542936.559
        49.900          42.400
 119894897.206 7  93424618.32045  22815242.953                    22815247.688
        45.300          30.900
 126919958.977 6  98898730.11043  24152073.680                    24152079.766
        38.700          21.700
 126017678.563 6  98195640.25143  23980368.641                    23980376.867
        38.100          22.500
 125330818.778 6  97660427.43143  23849670.688                    23849674.758
        37.900          21.100
 105296805.817 8  82049471.15447  20037313.992                    20037318.637
        52.800          47.000
 119306875.521 7  92966414.04945  22703345.984                    22703349.383
        46.000          34.300
 128481864.80015 100115747.88353  24449287.492                    24449290.887
        33.300          19.300
 20  1  1  0 19  0.0000000  0  9G05G13G29G30G24G20G15G21G02
 116365432.827 8  90674389.84446  22143605.500                    22143610.199
        49.500          37.700
 107997132.842 8  84153531.55647  20551145.188                    20551149.250
        50.000          42.700
 119976669.170 7  93488336.70345  22830803.367                    22830808.586
        45.400          30.500
 126973745.167 6  98940641.45343  24162308.609                    24162315.555
        37.700          22.300
 125904328.631 6  98107315.65743  23958798.359                    23958806.906
        37.200          22.500
 125243911.295 6  97592707.32443  23833132.313                    23833136.914
        38.100          21.100
 105279234.917 8  82035779.54147  20033970.570                    20033974.555
        53.100          47.200
 119237325.787 7  92912219.44645  22690110.945                    22690114.438
        45.700          34.900
 128584845.14615                  24468883.906
        34.400
 20  1  1  0 19 30.0000000  0  9G05G13G29G30G24G20G15G21G02
 116431408.042 8  90725799.08446  22156160.375                    22156165.184
        48.800          38.000
 108040752.922 8  84187521.22947  20559445.883                    20559449.773
        50.000          43.700
 120058753.285 7  93552298.32745  22846423.594                    22846428.371
        45.700          31.200
 127027995.484 6  98982914.43943  24172631.852                    24172639.477
        38.300          22.200
 125791013.689 6  98019018.31943  23937236.500                    23937243.945
        37.900          22.900
 125157026.535 6  97525004.90843  23816599.063                    23816604.180
        38.000          21.800
 105262166.816 8  82022479.72647  20030722.359                    20030726.504
        52.800          47.600
 119168029.306 7  92858222.19145  22676924.773                    22676927.539
        45.900          34.800
 128687974.08115 100276352.45253  24488509.172                    24488512.230
        34.800          18.600
 20  1  1  0 20  0.0000000  0  9G05G13G29G30G24G20G15G21G02
 116497551.558 8  90777339.47046  22168747.102                    22168751.809
        49.100          37.400
 108084832.369 8  84221868.84947  20567834.125                    20567838.031
        51.300          42.900
 120141144.448 7  93616499.20345  22862102.156                    22862106.840
        45.800          30.400
 127082706.729 6  99025546.60943  24183043.063                    24183049.941
        37.900          21.700
 125677734.604 6  97930748.92643  23915679.313                    23915687.508
        38.200          23.200
 125070163.583 6  97457319.47543  23800069.680                    23800074.203
        38.200          22.000
 105245599.374 9  82009570.03647  20027569.656                    20027573.934
        54.000          47.700
 119098987.067 7  92804423.04945  22663786.273                    22663789.754
        46.000          35.200
 128791249.45015 100356826.67352  24508162.188                    24508164.309
        33.800          16.300
 20  1  1  0 20 30.0000000  0  9G05G13G29G30G24G20G15G21G02
 116563864.289 8  90829011.70246  22181365.781                    22181370.746
        48.900          37.000
 108129369.742 8  84256573.29847  20576309.148                    20576312.875
        50.400          43.100
 120223840.192 7  93680937.41845  22877838.500                    22877843.656
        45.800          30.900
 127137877.813 6  99068537.04743  24193542.484                    24193549.156
        38.400          22.300
 125564495.300 6  97842510.54643  23894131.008                    23894139.023
        37.800          22.500
 124983323.662 6  97389652.01343  23783544.734                    23783549.113
        38.300          21.300
 105229532.958 8  81997050.74947  20024512.344                    20024516.723
        52.900          47.600
 119030201.263 7  92750823.71445  22650696.680                    22650700.184
        46.200          34.900
 128894669.23615 100437413.45453  24527841.695                    24527844.742
        35.000          18.300
 20  1  1  0 21  0.0000000  0  9G05G13G29G30G24G20G15G21G02
 116630346.955 8  90880816.35946  22194017.172                    22194021.738
        48.500          37.500
 108174365.075 8  84291634.60247  20584871.359                    20584875.605
        50.500          43.300
 120306839.552 7  93745612.22245  22893633.156                    22893637.906
        45.300          30.900
 127193509.472 6  99111886.37943  24204127.852                    24204135.270
        37.000          21.700
 125451300.023 6  97754306.46243  23872590.719                    23872598.754
        38.100          22.600
 124896509.360 6  97322004.48043  23767024.609                    23767028.531
        37.400          21.300
 105213969.156 8  81984923.11847  20021550.703                    20021555.063
        53.000          47.600
 118961676.445 7  92697427.76045  22637656.445                    22637659.930
        46.100          35.000
 128998234.16715 100518113.37652  24547549.164                    24547552.895
        33.600          17.800
 20  1  1  0 21 30.0000000  0  9G05G13G29G30G24G20G15G21G02
 116696998.331 8  90932752.48046  22206700.469                    22206705.074
        48.700          37.200
 108219815.151 8  84327050.24447  20593520.227                    20593523.949
        51.100          43.000
 120390137.845 7  93810519.95645  22909484.141                    22909488.926
        45.700          31.000
 127249598.677 6  99155592.26743  24214801.805                    24214808.527
        37.600          22.000
 125338150.659 6  97666138.15643  23851058.805                    23851066.398
        38.400          23.200
 124809720.473 6  97254376.78143  23750508.867                    23750513.309
        38.300          20.900
 105198906.180 8  81973185.73147  20018684.406                    20018688.582
        53.700          47.900
 118893413.254 7  92644235.66145  22624666.766                    22624670.156
        46.400          35.400
 129101941.39615                  24567283.977
        33.300
 20  1  1  0 22  0.0000000  0  9G05G13G29G30G24G20G15G21G02
 116763818.796 8  90984820.35946  22219416.461                    22219420.465
        48.600          37.300
 108265718.205 8  84362818.85647  20602255.094                    20602259.566
        49.800          42.700
 120473732.464 7  93875658.58445  22925392.148                    22925396.762
        46.500          31.500
 127306144.022 6  99199653.52343  24225561.773                    24225569.160
        37.100          21.100
 125225051.126 6  97578008.69844  23829536.938                    23829544.551
        37.700          24.300
 124722957.835 6  97186769.54543  23733998.977                    23734002.953
        38.200          21.500
 105184343.903 9  81961838.50847  20015913.102                    20015917.254
        54.100          47.600
 118825413.371 7  92591248.73145  22611726.977                    22611730.238
        46.600          34.200
 129205787.595 5 100679843.19352  24587045.914                    24587048.434
        34.700          16.900
 20  1  1  0 22 30.0000000  0  9G05G13G29G30G24G20G15G21G02
 116830806.146 8  91037018.27746  22232163.430                    22232167.762
        48.600          37.700
 108312070.028 8  84398937.16447  20611075.570                    20611079.789
        50.500          42.700
 120557618.199 7  93941024.07445  22941354.695                    22941359.488
        45.400          30.700
 127363141.859 6  99244067.42243  24236408.305                    24236415.531
        37.300          21.300
 125112001.544 6  97489918.13144  23808024.641                    23808031.793
        38.400          24.400
 124636219.865 6  97119181.50843  23717493.406                    23717496.801
        38.900          21.800
 105170279.934 8  81950879.57548  20013236.945                    20013240.980
        53.200          48.000
 118757677.234 7  92538467.33445  22598837.203                    22598840.582
        46.600          35.600
 129309770.20915 100760868.59252  24606832.969                    24606836.281
        32.200          17.400
 20  1  1  0 23  0.0000000  0  9G05G13G29G30G24G20G15G21G02
 116897962.045 8  91089347.52545  22244942.758                    22244947.625
        49.300          35.800
 108358870.557 8  84435405.10446  20619981.508                    20619985.680
        50.500          41.500
 120641793.396 7  94006615.11144  22957372.867                    22957377.617
        45.500          29.500
 127420592.373 6  99288834.02443  24247340.453                    24247347.395
        37.500          20.900
 124999007.169 6  97401870.58943  23786522.555                    23786529.723
        38.400          22.800
 124549509.369 6  97051614.88643  23700992.672                    23700996.570
        38.100          20.100
 105156715.551 9  81940309.92647  20010655.578                    20010659.711
        54.200          46.600
 118690209.319 7  92485894.93445  22585998.766                    22586002.172
        46.400          34.200
 129413889.002 5 100842000.06942  24626646.078                    24626649.969
        32.600          17.400
 20  1  1  0 23 30.0000000  0  9G05G13G29G30G24G20G15G21G02
 116965284.952 8  91141806.92546  22257753.727                    22257758.680
        48.600          37.500
 108406116.678 8  84472220.26547  20628972.266                    20628976.574
        51.200          43.100
 120726254.501 7  94072428.92745  22973445.039                    22973450.344
        45.500          31.200
 127478493.007 6  99333951.37543  24258358.563                    24258365.828
        38.100          21.100
 124886069.789 6  97313867.46344  23765031.148                    23765039.031
        38.800          24.100
 124462826.099 6  96984069.51443  23684497.953                    23684501.590
        38.700          21.700
 105143649.073 8  81930128.26248  20008169.219                    20008173.840
        53.000          48.100
 118623010.317 7  92433532.07245  22573210.883                    22573214.141
        46.700          35.500
 129518140.931 5 100923235.30543  24646485.063                    24646489.305
        32.800          19.600
 20  1  1  0 24  0.0000000  0  9G05G13G29G30G24G20G15G21G02
 117032773.958 8  91194395.73946  22270596.508                    22270601.078
        49.100          36.600
 108453805.664 8  84509380.50846  20638047.203                    20638051.215
        50.900          41.400
 120810997.064 7  94138462.06545  22989570.961                    22989576.133
        45.400          30.300
 127536841.279 6  99379417.51543  24269462.234                    24269469.465
        37.800          19.600
 124773191.967 6  97225910.75944  23743551.109                    23743559.004
        38.700          24.600
 124376169.705 6  96916545.04843  23668007.109                    23668010.762
        38.100          20.900
 105131079.551 8  81920333.82747  20005777.227                    20005781.922
        53.900          47.000
 118556081.444 7  92381379.70045  22560474.148                    22560478.004
        46.400          34.600
 129622523.155 5 101004572.04442  24666348.320                    24666351.996
        32.900          17.800
 20  1  1  0 24 30.0000000  0  9G05G13G29G30G24G20G15G21G02
 117100428.873 8  91247113.84146  22283470.906                    22283475.879
        48.800          36.900
 108501935.808 8  84546884.51347  20647206.453                    20647209.980
        50.300          43.000
 120896018.303 7  94204712.35445  23005750.109                    23005755.344
        45.700          30.200
 127595635.682 6  99425231.30943  24280650.586                    24280657.129
        37.200          20.900
 124660376.354 6  97138002.50644  23722082.984                    23722090.945
        38.000          24.800
 124289541.295 6  96849042.40843  23651522.273                    23651526.918
        37.300          21.700
 105119006.641 8  81910926.36847  20003479.922                    20003484.508
        53.800          47.900
 118489424.922 7  92329439.54845  22547790.477                    22547793.617
        46.300          35.800
 129727034.355 5 101086009.28642  24686235.445                    24686239.648
        33.000          16.300
 20  1  1  0 25  0.0000000  0  9G05G13G29G30G24G20G15G21G02
 117168250.194 8  91299961.61246  22296376.773                    22296381.473
        49.100          37.100
 108550505.224 8  84584730.81947  20656448.359                    20656452.699
        50.100          42.600
 120981315.557 7  94271177.72845  23021981.617                    23021987.113
        45.400          30.600
 127654874.903 6  99471391.72443  24291923.164                    24291930.668
        37.400          21.700
 124547627.206 6  97050146.05943  23700627.328                    23700634.926
        38.100          23.000
 124202942.054 6  96781562.47343  23635042.570                    23635047.625
        37.100          22.000
 105107430.069 9  81901905.66047  20001276.781                    20001281.180
        54.200          47.900
 118423043.417 7  92277713.69946  22535158.523                    22535162.414
        46.100          36.000
 129831672.660 5 101167545.56042  24706148.328                    24706152.066
        34.500          17.400
 20  1  1  0 25 30.0000000  0  9G05G13G29G30G24G20G15G21G02
 117236237.686 8  91352938.86846  22309314.461                    22309319.180
        49.300          36.700
 108599512.417 8  84622918.24347  20665774.031                    20665777.988
        49.900          42.200
 121066885.593 7  94337855.65745  23038265.266                    23038270.250
        45.100          30.500
 127714557.413 6  99517897.53043  24303280.023                    24303287.473
        36.700          19.300
 124434946.556 6  96962342.99244  23679185.094                    23679192.285
        38.700          25.600
 124116372.673 6  96714105.82243  23618569.664                    23618573.793
        37.900          21.800
 105096349.270 8  81893271.28147  19999168.328                    19999173.215
        53.500          47.900
 118356938.861 7  92226203.64646  22522579.219                    22522582.742
        46.300          36.100
 129936436.314 5 101249179.50242  24726084.188                    24726087.699
        34.800          17.800
 20  1  1  0 26  0.0000000  0  9G05G13G29G30G24G20G15G21G02
 117304392.299 8  91406046.33646  22322283.984                    22322288.992
        48.400          36.300
 108648955.782 8  84661445.53647  20675182.211                    20675187.277
        50.200          42.900
 121152726.614 7  94404744.73645  23054600.766                    23054605.441
        45.400          31.600
 127774682.538 6  99564748.26343  24314722.047                    24314729.219
        37.300          20.900
 124322339.662 6  96874597.39244  23657755.703                    23657764.520
        38.100          24.800
 124029834.937 6  96646673.81743  23602101.586                    23602105.438
        36.800          21.700
 105085765.007 8  81885023.80648  19997154.469                    19997158.602
        53.300          48.000
 118291114.317 7  92174911.79046  22510053.063                    22510056.504
        45.800          36.000
 130041324.769 5 101330910.74942  24746043.703                    24746047.031
        33.700          15.600
 20  1  1  0 26 30.0000000  0  9G05G13G29G30G24G20G15G21G02
 117372712.783 8  91459283.05746  22335284.883                    22335289.543
        48.300          36.600
 108698832.238 8  84700310.30647  20684674.188                    20684678.695
        50.600          42.600
 121238834.182 7  94471841.53144  23070985.898                    23070991.309
        45.000          29.800
 127835247.509 6  99611941.71343  24326247.359                    24326253.840
        37.400          20.400
 124209807.804 6  96786910.27044  23636342.688                    23636350.020
        38.200          24.800
 123943328.912 6  96579266.52343  23585640.070                    23585644.668
        37.000          22.000
 105075675.592 8  81877161.92648  19995234.086                    19995238.570
        53.900          48.100
 118225571.000 7  92123839.07345  22497580.859                    22497584.094
        46.200          35.900
 130146335.138 5 101412736.92442  24766025.156                    24766029.398
        33.000          17.400
 20  1  1  0 27  0.0000000  0  9G05G13G29G30G24G20G15G21G02
 117441197.543 8  91512647.78146  22348317.094                    22348321.844
        48.600          36.500
 108749138.679 8  84739510.12447  20694247.086                    20694251.102
        51.000          42.800
 121325203.927 7  94539142.60545  23087421.742                    23087426.086
        45.000          30.600
 127896249.260 6  99659475.50943  24337854.906                    24337862.371
        37.100          19.300
 124097353.016 6  96699283.19943  23614942.680                    23614950.500
        37.400          23.300
 123856853.744 6  96511883.26643  23569184.055                    23569188.887
        37.100          21.700
 105066079.100 8  81869684.14248  19993407.883                    19993412.492
        53.500          48.100
 118160309.890 7  92072986.25946  22485161.469                    22485165.656
        45.800          36.400
 130251463.770 6 101494655.25442  24786031.953                    24786035.598
        36.200          17.800
 20  1  1  0 27 30.0000000  0  9G05G13G29G30G24G20G15G21G02
 117509847.193 7  91566140.98946  22361380.586                    22361384.953
        47.600          36.100
 108799873.815 8  84779043.98247  20703901.789                    20703905.969
        50.600          42.500
 121411833.252 7  94606645.96345  23103906.789                    23103911.773
        44.900          30.400
 127957686.805 6  99707348.91243  24349546.273                    24349553.496
        37.300          19.000
 123984978.919 6  96611719.00044  23593558.328                    23593566.668
        38.200          24.300
 123770411.082 6  96444525.39643  23552735.391                    23552738.691
        38.100          22.000
 105056975.699 8  81862590.58447  19991675.820                    19991680.258
        53.400          47.900
 118095333.709 7  92022355.46646  22472797.195                    22472800.887
        45.900          36.400
 130356709.524 5 101576664.86642  24806058.883                    24806062.535
        33.900          16.900
 20  1  1  0 28  0.0000000  0  9G05G13G29G30G24G20G15G21G02
 117578663.857 8  91619764.34745  22374476.023                    22374480.883
        48.600          35.900
 108851037.805 8  84818912.01347  20713637.844                    20713642.293
        50.300          42.300
 121498721.576 7  94674351.13345  23120441.172                    23120446.320
        45.000          30.400
 128019560.630 6  99755562.27743  24361320.273                    24361327.566
        36.200          20.600
 123872691.089 6  96524222.02744  23572190.547                    23572198.625
        37.700          25.200
 123684004.033 6  96377195.23443  23536292.953                    23536296.188
        38.100          21.800
 105048367.164 8  81855882.63947  19990037.727                    19990042.023
        52.800          47.900
 118030646.900 7  91971950.16046  22460487.484                    22460491.633
        45.900          36.400
 130462072.951 5 101658766.16042  24826110.023                    24826112.773
        35.500          16.900
 20  1  1  0 28 30.0000000  0  9G05G13G29G30G24G20G15G21G02
 117647640.948 8  91673512.70445  22387601.953                    22387606.602
        48.400          35.800
 108902621.962 8  84859107.44947  20723454.164                    20723458.363
        49.900          42.500
 121585858.781 7  94742250.23345  23137022.805                    23137027.789
        44.900          30.400
 128081862.563 6  99804109.22943  24373176.930                    24373182.984
        36.500          19.900
 123760485.409 6  96436789.07644  23550837.695                    23550846.941
        37.500          24.700
 123597626.942 6  96309888.42243  23519854.914                    23519858.512
        38.000          21.500
 105040246.625 8  81849554.95348  19988492.063                    19988496.691
        53.900          48.000
 117966244.758 7  91921766.65646  22448232.352                    22448236.410
        45.700          36.600
 130567545.745 5 101740952.71142  24846180.914                    24846184.453
        35.400          17.400
 20  1  1  0 29  0.0000000  0  9G05G13G29G30G24G20G15G21G02
 117716785.166 8  91727391.29645  22400759.805                    22400764.453
        48.100          35.000
 108954631.379 8  84899634.25246  20733351.313                    20733355.316
        50.100          41.900
 121673249.356 7  94810346.76345  23153652.234                    23153657.922
        44.100          30.000
 128144597.855 6  99852993.83543  24385114.578                    24385121.605
        37.300          19.900
 123648372.778 6  96349428.61044  23529504.141                    23529512.594
        37.700          25.500
 123511287.798 6  96242611.18643  23503426.086                    23503429.406
        38.000          21.700
 105032620.162 9  81843612.24948  19987041.008                    19987045.430
        54.100          48.000
 117902136.520 7  91871812.18246  22436033.133                    22436036.953
        45.700          36.800
 130673133.026 5 101823228.46543  24866272.305                    24866275.746
        35.300          18.600
 20  1  1  0 29 30.0000000  0  9G05G13G29G30G24G20G15G21G02
 117786093.499 7  91781397.77745  22413948.477                    22413953.512
        47.500          35.800
 109007061.080 8  84940488.55547  20743328.203                    20743332.348
        50.200          42.100
 121760887.141 7  94878635.93144  23170328.719                    23170335.055
        44.600          29.800
 128207761.860 6  99902212.52143  24397134.445                    24397141.402
        36.800          19.300
 123536353.254 6  96262140.69044  23508187.578                    23508195.734
        38.000          25.700
 123424984.294 6  96175361.72643  23487001.867                    23487005.855
        37.800          22.200
 105025484.301 8  81838051.84348  19985683.094                    19985687.633
        52.600          48.100
 117838321.391 7  91822086.10246  22423889.211                    22423893.191
        45.900          36.400
 130778829.946 5 101905589.63642  24886386.133                    24886389.625
        34.300          17.400
 20  1  1  0 30  0.0000000  0  9G05G13G29G30G24G20G15G21G02
 117855564.302 7  91835530.85245  22427169.000                    22427173.625
        47.500          35.500
 109059907.398 8  84981667.49047  20753384.742                    20753388.613
        49.400          42.400
 121848767.378 7  94947114.02445  23187052.047                    23187058.219
        44.700          30.000
 128271351.263 6  99951762.67443  24409234.617                    24409241.414
        37.100          18.300
 123424428.691 6  96174926.79744  23486889.492                    23486897.320
        37.500          26.000
 123338716.031 6  96108139.73743  23470585.492                    23470589.789
        37.900          22.000
 105018837.105 8  81832872.21248  19984418.523                    19984422.930
        52.100          48.500
 117774800.415 7  91772589.23346  22411801.609                    22411805.324
        45.700          37.100
 130884633.212 5 101988033.61642  24906520.016                    24906523.930
        34.100          17.400
 20  1  1  0 30 30.0000000  0  9G05G13G29G30G24G20G15G21G02
 117925197.014 7  91889790.09545  22440419.055                    22440423.602
        47.100          35.100
 109113168.124 8  85023169.34547  20763519.750                    20763524.094
        49.100          42.200
 121936886.525 7  95015778.27944  23203821.000                    23203826.020
        44.400          28.800
 128335364.091 6 100001642.80843  24421416.758                    24421423.488
        37.000          19.300
 123312601.302 6  96087788.61944  23465608.852                    23465617.578
        37.000          24.900
 123252483.681 6  96040945.71143  23454176.828                    23454180.988
        38.600          23.300
 105012677.698 8  81828072.68248  19983246.344                    19983250.715
        53.500          48.300
 117711574.886 7  91723322.57846  22399770.234                    22399774.273
        45.700          37.000
 130990540.534 5 102070558.77042  24926675.055                    24926677.383
        35.800          17.400
 20  1  1  0 31  0.0000000  0  9G05G13G29G30G24G20G15G21G02
 117994995.743 7  91944178.69345  22453701.961                    22453706.543
        47.800          34.600
 109166845.245 8  85064995.67147  20773734.102                    20773737.898
        49.500          42.000
 122025245.358 7  95084629.31544  23220634.352                    23220640.207
        44.100          29.600
 128399802.486 6 100051854.52943  24433678.586                    24433684.754
        37.500          19.000
 123200878.771 6  96000732.12744  23444349.008                    23444357.184
        38.100          26.000
 123166291.915 6  95973783.32243  23437774.797                    23437779.246
        38.100          21.700
 105007009.095 8  81823655.59248  19982167.336                    19982171.668
        52.300          48.500
 117648651.061 7  91674291.02246  22387796.164                    22387799.961
        46.200          36.900
 131096554.047 5 102153166.66743  24946847.391                    24946851.102
        35.400          18.300
 20  1  1  0 31 30.0000000  0  9G05G13G29G30G24G20G15G21G02
 118064956.543 7  91998693.59745  22467014.625                    22467019.074
        47.900          34.400
 109220932.906 8  85107141.88546  20784026.609                    20784030.910
        48.900          41.300
 122113837.324 7  95153662.00044  23237493.172                    23237498.734
        43.000          29.300
 128464660.954 6 100102393.55843  24446020.586                    24446027.305
        37.000          18.600
 123089260.612 6  95913756.97344  23423108.891                    23423116.746
        38.500          25.100
 123080137.976 6  95906650.40343  23421380.086                    23421384.742
        38.900          22.300
 105001827.179 8  81819617.73448  19981181.359                    19981185.641
        52.300          48.100
 117586027.719 7  91625493.61146  22375879.672                    22375883.531
        46.200          37.100
 131202668.328 5 102235852.97442  24967039.859                    24967043.836
        34.800          16.900
 20  1  1  0 32  0.0000000  0  9G05G13G29G30G24G20G15G21G02
 118135080.966 7  92053335.99045  22480358.992                    22480363.617
        46.900          34.600
 109275430.617 8  85149607.62846  20794397.258                    20794401.332
        49.000          41.300
 122202661.051 7  95222875.27044  23254395.750                    23254401.668
        43.400          29.900
 128529939.382 6 100153259.84443  24458442.922                    24458449.852
        37.100          19.300
 122977751.018 6  95826866.41544  23401889.141                    23401897.500
        38.100          27.100
 122994024.479 6  95839549.00343  23404993.180                    23404997.105
        38.500          23.800
 104997132.993 8  81815959.92948  19980288.117                    19980292.168
        52.300          48.500
 117523708.429 7  91576933.11846  22364020.242                    22364023.895
        45.900          36.700
 131308883.380 6 102318617.89343  24987252.406                    24987256.465
        36.300          18.300
 20  1  1  0 32 30.0000000  0  9G05G13G29G30G24G20G15G21G02
 118205366.711 7  92108104.09045  22493734.125                    22493738.773
        47.300          34.800
 109330333.939 8  85192389.44246  20804845.086                    20804849.184
        48.700          41.200
 122291710.854 7  95292264.71444  23271341.367                    23271347.262
        43.600          28.800
 128595633.524 6 100204450.02443  24470943.844                    24470950.855
        37.500          18.300
 122866351.122 6  95740061.32644  23380689.984                    23380698.590
        38.700          26.400
 122907949.911 6  95772477.90743  23388613.492                    23388618.699
        38.400          23.600
 104992923.348 8  81812679.68347  19979487.242                    19979491.418
        52.200          47.900
 117461692.759 7  91528609.21746  22352219.500                    22352223.215
        46.100          36.500
 131415194.511 5 102401457.65542  25007482.836                    25007487.164
        35.900          17.800
 20  1  1  0 33  0.0000000  0  8G05G13G29G30G24G20G15G21
 118275814.780 7  92162998.67345  22507139.383                    22507144.207
        47.300          34.800
 109385642.268 8  85235486.84246  20815369.828                    20815374.094
        48.700          41.100
 122380985.155 7  95361829.09244  23288329.945                    23288336.188
        43.400          29.100
 128661742.929 6 100255963.80043  24483524.305                    24483531.242
        36.400          18.600
 122755065.548 6  95653345.32444  23359513.508                    23359521.559
        39.200          27.900
 122821916.493 6  95705438.88943  23372241.820                    23372246.910
        38.300          23.600
 104989199.155 8  81809777.71048  19978778.352                    19978782.676
        52.400          48.700
 117399984.316 7  91480524.70746  22340476.773                    22340480.559
        46.000          36.900
 20  1  1  0 33 30.0000000  0  8G05G13G29G30G24G20G15G21
 118346424.445 7  92218019.17745  22520576.016                    22520580.977
        47.500          32.700
 109441352.559 8  85278897.45546  20825971.250                    20825975.504
        48.800          39.700
 122470479.515 7  95431564.93644  23305360.141                    23305365.344
        43.300          27.900
 128728264.698 5 100307798.91243  24496182.977                    24496189.922
        35.700          19.000
 122643896.295 6  95566719.98144  23338358.422                    23338366.422
        38.400          24.100
 122735924.083 6  95638431.83643  23355878.336                    23355882.758
        39.200          22.800
 104985958.762 8  81807252.72747  19978162.086                    19978165.883
        52.500          47.100
 117338584.336 7  91432680.56445  22328792.953                    22328796.438
        46.200          35.400
 20  1  1  0 34  0.0000000  0  8G05G13G29G30G24G20G15G21
 118417196.867 7  92273166.49745  22534043.813                    22534048.313
        47.400          34.400
 109497464.613 8  85322621.12046  20836648.961                    20836653.043
        49.200          41.600
 122560193.046 7  95501471.56844  23322432.180                    23322437.445
        43.200          28.500
 128795199.111 6 100359955.54443  24508919.797                    24508927.180
        37.300          18.600
 122532848.515 6  95480189.27944  23317227.563                    23317235.000
        39.200          26.900
 122649975.747 6  95571459.11243  23339522.961                    23339527.531
        39.500          22.800
 104983203.229 8  81805105.55148  19977637.359                    19977641.773
        52.300          48.800
 117277496.689 7  91385079.80846  22317168.234                    22317171.625
        46.700          37.200
 20  1  1  0 34 30.0000000  0  8G05G13G29G30G24G20G15G21
 118488128.784 7  92328438.10545  22547541.484                    22547546.266
        47.300          33.600
 109553972.632 8  85366653.32446  20847402.234                    20847406.215
        48.600          40.800
 122650119.335 7  95571543.98744  23339545.172                    23339550.406
        43.000          28.900
 128862540.861 6 100412429.60042  24521734.641                    24521742.031
        37.100          17.400
 122421921.982 6  95393753.05844  23296118.594                    23296126.520
        39.200          27.300
 122564069.043 6  95504518.84743  23323175.281                    23323179.484
        39.400          23.000
 104980928.262 8  81803332.85148  19977204.445                    19977209.105
        52.500          48.100
 117216720.283 7  91337721.56346  22305602.594                    22305606.301
        46.400          37.000
 20  1  1  0 35  0.0000000  0  8G05G13G29G30G24G20G15G21
 118559221.437 7  92383834.96845  22561070.141                    22561074.703
        47.800          33.500
 109610876.413 8  85410993.93246  20858230.211                    20858234.734
        48.500          40.900
 122740256.223 7  95641780.49344  23356697.813                    23356702.660
        42.800          28.100
 128930289.155 6 100465220.40142  24534626.195                    24534634.129
        36.200          17.800
 122311121.081 6  95307414.72744  23275033.609                    23275041.660
        39.500          25.600
 122478206.135 6  95437612.69443  23306835.594                    23306840.566
        39.400          23.600
 104979134.867 8  81801935.39548  19976863.133                    19976867.539
        52.900          48.700
 117156258.256 7  91290608.28546  22294097.125                    22294100.410
        46.300          36.700
 20  1  1  0 35 30.0000000  0  8G05G13G29G30G24G20G15G21
 118630475.375 7  92439357.48445  22574629.352                    22574634.258
        47.200          33.600
 109668174.168 8  85455641.52746  20869133.758                    20869138.414
        48.600          41.400
 122830601.481 7  95712179.38444  23373889.609                    23373894.438
        43.000          29.600
 128998443.042 6 100518327.29342  24547595.875                    24547603.164
        36.900          17.400
 122200450.011 6  95221177.57444  23253973.609                    23253981.543
        38.800          26.800
 122392388.978 6  95370742.19444  23290505.859                    23290509.930
        39.400          24.300
 104977822.677 8  81800912.90548  19976613.516                    19976617.797
        52.500          48.700
 117096113.506 7  91243742.24846  22282652.078                    22282655.422
        46.300          37.700
 20  1  1  0 36  0.0000000  0  8G05G13G29G30G24G20G15G21
 118701888.920 7  92495004.38345  22588218.922                    22588223.371
        47.300          34.000
 109725862.501 8  85500593.46846  20880111.516                    20880116.078
        48.600          41.200
 122921150.684 7  95782737.18344  23391120.586                    23391125.816
        42.900          28.400
 129066999.209 5 100571747.59743  24560641.758                    24560649.164
        35.900          18.600
 122089910.234 6  95135042.73444  23232939.273                    23232946.234
        39.300          27.400
 122306616.758 6  95303906.72043  23274183.375                    23274188.027
        39.800          22.900
 104976989.704 8  81800263.83748  19976455.016                    19976459.215
        52.300          48.600
 117036286.505 7  91197123.80246  22271267.523                    22271270.715
        46.500          37.500
 20  1  1  0 36 30.0000000  0  8G05G13G29G30G24G20G15G21
 118773464.127 7  92550777.25145  22601839.492                    22601843.961
        47.000          33.300
 109783940.939 8  85545849.38946  20891163.594                    20891167.758
        48.600          41.700
 123011902.113 7  95853452.56444  23408389.609                    23408395.246
        43.000          27.900
 129135957.345 6 100625481.15142  24573764.969                    24573771.766
        36.100          17.800
 121979506.973 6  95049014.25444  23211929.531                    23211937.594
        39.200          27.400
 122220892.386 6  95237108.52444  23257871.016                    23257875.055
        39.200          25.400
 104976636.700 8  81799988.77448  19976387.672                    19976392.242
        52.500          48.500
 116976781.406 7  91150756.19046  22259943.492                    22259947.395
        46.800          37.500
 20  1  1  0 37  0.0000000  0  8G05G13G29G30G24G20G15G21
 118845198.819 7  92606674.39045  22615489.875                    22615494.734
        47.400          33.600
 109842405.764 8  85591406.38946  20902288.930                    20902293.438
        48.600          41.500
 123102851.113 7  95924321.90144  23425696.977                    23425701.852
        43.000          27.600
 129205313.932 5 100679525.19343  24586962.906                    24586969.566
        34.700          18.300
 121869241.507 6  94963093.16244  23190946.180                    23190954.422
        39.500          26.400
 122135214.660 6  95170346.66844  23241567.227                    23241570.477
        39.800          25.000
 104976761.051 8  81800085.66848  19976411.414                    19976415.914
        52.300          48.500
 116917598.879 7  91104639.93046  22248681.719                    22248685.383
        46.600          37.400
 20  1  1  0 37 30.0000000  0  8G05G13G29G30G24G20G15G21
 118917092.210 7  92662695.18945  22629170.727                    22629175.555
        47.200          33.800
 109901253.978 8  85637262.13146  20913487.453                    20913492.039
        48.500          41.600
 123193993.649 7  95995342.04344  23443040.977                    23443046.387
        42.300          28.400
 129275066.259 5 100733877.59342  24600236.211                    24600243.070
        35.400          17.800
 121759115.892 6  94877281.02444  23169990.172                    23169998.223
        39.600          28.000
 122049584.317 6  95103621.74244  23225272.172                    23225276.137
        39.400          25.000
 104977361.511 8  81800553.55648  19976525.531                    19976530.121
        53.100          48.800
 116858739.770 7  91058775.69246  22237481.664                    22237484.984
        46.600          37.200
 20  1  1  0 38  0.0000000  0  8G05G13G29G30G24G20G15G21
 118989144.128 7  92718839.51345  22642881.547                    22642886.535
        47.100          33.700
 109960483.668 8  85683415.12846  20924758.547                    20924763.039
        48.600          41.200
 123285327.094 7  96066510.92744  23460420.750                    23460426.215
        42.300          28.000
 129345212.644 5 100788537.08243  24613584.648                    24613592.172
        35.600          18.300
 121649134.220 6  94791581.04744  23149061.773                    23149069.371
        39.100          26.800
 121964002.668 6  95036934.76844  23208986.727                    23208990.586
        40.000          25.200
 104978437.598 8  81801392.05648  19976730.234                    19976734.770
        52.600          48.600
 116800206.387 7  91013165.26146  22226342.711                    22226346.109
        46.700          37.500
 20  1  1  0 38 30.0000000  0  8G05G13G29G30G24G20G15G21
 119061354.964 7  92775107.67645  22656622.938                    22656627.973
        46.800          33.300
 110020092.996 8  85729863.95346  20936101.766                    20936106.262
        48.600          41.300
 123376848.251 7  96137826.11244  23477836.625                    23477842.152
        42.300          27.900
 129415751.226 5 100843502.18642  24627007.102                    24627015.277
        34.700          16.900
 121539299.351 6  94705995.47044  23128160.508                    23128168.137
        40.200          26.900
 121878470.564 6  94970286.41244  23192710.875                    23192714.258
        40.200          25.000
 104979988.460 8  81802600.51548  19977025.891                    19977030.184
        52.300          48.700
 116742001.201 7  90967810.56946  22215266.602                    22215269.844
        46.900          37.500
 20  1  1  0 39  0.0000000  0  8G05G13G29G30G24G20G15G21
 119133726.428 7  92831500.99645  22670394.953                    22670399.961
        46.700          33.900
 110080081.742 8  85776608.42646  20947517.117                    20947521.820
        48.600          40.900
 123468556.169 7  96209286.79544  23495288.242                    23495293.199
        42.500          26.400
 129486682.038 6 100898772.93442  24640506.125                    24640512.488
        36.100          17.800
 121429616.685 6  94620528.48444  23107288.758                    23107296.145
        39.500          28.200
 121792991.156 6  94903679.07044  23176444.289                    23176448.203
        40.200          24.700
 104982015.092 8  81804179.70648  19977411.031                    19977415.461
        53.000          48.400
 116684128.353 7  90922714.85146  22204254.227                    22204257.113
        46.700          37.100
 20  1  1  0 39 30.0000000  0  8G05G13G29G30G24G20G15G21
 119206255.108 7  92888016.81945  22684196.906                    22684201.871
        46.000          33.300
 110140444.628 8  85823644.43546  20959003.953                    20959008.316
        48.600          41.300
 123560444.425 6  96280888.02444  23512773.789                    23512779.219
        41.200          27.600
 129557999.823 5 100954345.20342  24654076.039                    24654084.234
        34.900          16.900
 121320085.458 6  94535179.49944  23086445.586                    23086452.969
        39.900          29.700
 121707561.780 6  94837110.77144  23160187.594                    23160191.496
        40.500          26.400
 104984513.503 8  81806126.51648  19977886.430                    19977890.801
        53.200          48.600
 116626586.307 7  90877876.89746  22193304.313                    22193307.316
        47.100          37.600
 20  1  1  0 40  0.0000000  0  8G05G13G29G30G24G20G15G21
 119278942.576 7  92944656.37545  22698028.508                    22698033.074
        46.900          33.400
 110201181.085 8  85870971.53246  20970561.898                    20970566.152
        48.600          41.100
 123652511.287 6  96352628.41144  23530293.688                    23530299.133
        41.200          27.500
 129629704.330 5 101010218.85742  24667721.359                    24667728.625
        34.800          17.400
 121210711.830 6  94449953.31944  23065632.836                    23065640.219
        40.200          28.400
 121622185.656 6  94770583.92144  23143940.813                    23143944.578
        40.500          26.400
 104987484.407 8  81808441.50648  19978452.039                    19978456.395
        53.000          48.500
 116569379.021 7  90833299.79046  22182418.023                    22182421.211
        47.100          38.400
 20  1  1  0 40 30.0000000  0  8G05G13G29G30G24G20G15G21
 119351788.491 7  93001419.40845  22711891.148                    22711895.859
        46.400          33.600
 110262288.577 8  85918587.75646  20982190.227                    20982194.625
        48.700          41.100
 123744753.556 6  96424505.48044  23547846.609                    23547852.090
        41.100          26.500
 129701793.197 5 101066391.98043  24681439.531                    24681446.938
        33.700          18.600
 121101497.684 6  94364851.39544  23044849.492                    23044857.480
        40.900          27.400
 121536863.269 6  94704098.96344  23127704.328                    23127708.512
        39.900          25.700
 104990926.839 8  81811123.92048  19979107.188                    19979111.266
        52.200          48.800
 116512507.899 7  90788984.63146  22171595.492                    22171598.840
        46.900          37.500
 20  1  1  0 41  0.0000000  0  8G05G13G29G30G24G20G15G21
 119424794.667 7  93058307.31245  22725783.117                    22725788.109
        46.400          33.500
 110323767.116 8  85966493.10546  20993889.250                    20993893.383
        48.600          40.500
 123837170.174 6  96496518.41144  23565432.563                    23565438.348
        40.800          27.200
 129774266.421 5 101122864.60442  24695231.297                    24695237.965
        33.700          16.900
 120992448.698 6  94279878.16544  23024098.047                    23024105.617
        40.800          28.100
 121451597.583 6  94637658.19744  23111478.984                    23111482.590
        40.100          25.400
 104994841.550 8  81814174.34048  19979851.984                    19979856.453
        52.800          48.200
 116455977.483 7  90744934.95646  22160838.305                    22160841.727
        47.000          37.100
 20  1  1  0 41 30.0000000  0  8G05G13G29G30G24G20G15G21
 119497956.777 7  93115316.72545  22739705.852                    22739710.988
        46.400          33.300
 110385610.223 8  86014682.53246  21005657.523                    21005661.512
        48.700          40.900
 123929753.571 6  96568661.28344  23583050.938                    23583056.441
        40.900          27.000
 129847117.740 5 101179631.86143  24709094.063                    24709101.594
        33.400          18.300
 120883563.440 6  94195032.50744  23003377.859                    23003386.250
        40.900          29.300
 121366385.163 6  94571258.92544  23095263.648                    23095267.977
        39.900          26.000
 104999223.642 8  81817588.95448  19980685.898                    19980690.410
        52.300          48.800
 116399785.207 7  90701148.76146  22150145.336                    22150148.563
        47.000          38.400
 20  1  1  0 42  0.0000000  0  8G05G13G29G30G24G20G15G21
 119571275.646 7  93172448.28245  22753657.750                    22753662.598
        46.000          33.000
 110447817.198 8  86063155.48846  21017495.094                    21017499.473
        48.700          40.400
 124022502.148 6  96640932.88244  23600700.656                    23600705.766
        41.300          26.200
 129920346.598 5 101236693.30142  24723029.328                    24723036.746
        34.600          15.600
 120774846.972 6  94110318.39044  22982690.469                    22982697.602
        41.600          29.200
 121281229.078 6  94504903.55544  23079058.594                    23079062.918
        41.000          24.700
 105004073.586 8  81821368.12248  19981608.961                    19981613.434
        52.400          48.300
 116343934.963 7  90657629.09046  22139517.438                    22139520.906
        47.000          38.000
 20  1  1  0 42 30.0000000  0  8G05G13G29G30G24G20G15G21
 119644749.459 7  93229700.58245  22767639.289                    22767644.441
        46.000          33.000
 110510383.738 8  86111908.62746  21029401.156                    21029405.336
        48.500          40.800
 124115410.786 6  96713329.19944  23618381.063                    23618385.688
        41.000          27.300
 129993948.749 5 101294045.60942  24737034.938                    24737042.219
        33.900          16.900
 120666300.371 6  94025736.61145  22962034.188                    22962042.555
        41.300          30.000
 121196128.298 6  94438591.26244  23062864.719                    23062868.617
        40.500          26.900
 105009388.424 8  81825509.55648  19982620.242                    19982624.699
        53.000          48.600
 116288426.512 7  90614375.75646  22128953.961                    22128957.242
        47.200          38.300
 20  1  1  0 43  0.0000000  0  8G05G13G29G30G24G20G15G21
 119718380.211 7  93287075.17045  22781650.688                    22781655.746
        46.000          32.300
 110573309.666 8  86160941.80746  21041375.391                    21041379.539
        48.600          40.000
 124208478.148 6  96785849.19844  23636091.055                    23636096.129
        40.800          26.300
 130067924.343 5 101351688.89242  24751111.820                    24751119.418
        33.500          16.300
 120557928.072 6  93941290.66244  22941412.047                    22941419.863
        41.600          28.600
 121111085.428 6  94372324.11544  23046681.234                    23046685.703
        40.300          26.000
 105015169.308 8  81830014.13547  19983720.477                    19983724.988
        52.700          47.500
 116233263.666 7  90571391.72046  22118457.039                    22118460.434
        47.100          37.400
 20  1  1  0 43 30.0000000  0  8G05G13G29G30G24G20G15G21
 119792166.762 7  93344571.16245  22795691.898                    22795697.000
        46.400          33.200
 110636591.934 8  86210252.65946  21053418.000                    21053422.098
        48.600          40.700
 124301700.137 6  96858489.66944  23653830.172                    23653835.750
        41.100          26.900
 130142270.180 5 101409620.68042  24765259.031                    24765267.258
        32.800          16.300
 120449733.022 6  93856982.82344  22920823.039                    22920830.852
        41.300          29.400
 121026100.406 6  94306102.01744  23030509.258                    23030513.191
        40.800          26.900
 105021414.082 8  81834880.19248  19984908.820                    19984913.141
        52.300          48.900
 116178447.675 7  90528677.96246  22108026.391                    22108029.441
        47.100          38.400
 20  1  1  0 44  0.0000000  0  8G05G13G29G30G24G20G15G21
 119866112.183 7  93402190.95545  22809763.477                    22809768.598
        46.700          32.300
 110700231.959 8  86259842.28246  21065528.156                    21065532.168
        48.400          39.500
 124395077.699 6  96931251.38544  23671599.570                    23671605.273
        41.400          25.800
 130216988.096 5 101467842.43642  24779478.109                    24779485.219
        33.500          16.900
 120341722.278 6  93772818.62044  22900269.016                    22900276.508
        41.300          27.500
 120941178.397 6  94239929.04244  23014350.070                    23014353.098
        41.000          25.800
 105028125.727 8  81840110.03847  19986185.977                    19986190.125
        52.300          47.500
 116123984.144 7  90486238.84846  22097661.977                    22097665.551
        47.000          36.800
 20  1  1  0 44 30.0000000  0  8G05G13G29G30G24G20G15G21
 119940211.629 7  93459930.75745  22823864.234                    22823869.090
        47.000          32.100
 110764223.128 8  86309705.51746  21077705.094                    21077709.383
        48.300          39.900
 124488602.286 6  97004127.66344  23689397.305                    23689402.113
        41.800          26.400
 130292070.826 5 101526348.41443  24793765.758                    24793773.230
        33.700          18.300
 120233893.638 6  93688796.29544  22879750.148                    22879757.852
        41.600          29.800
 120856315.091 6  94173801.80544  22998200.953                    22998204.402
        41.000          26.100
 105035298.158 8  81845698.94748  19987550.844                    19987555.105
        52.200          48.400
 116069869.796 7  90444071.81946  22087364.305                    22087368.414
        47.000          38.100
 20  1  1  0 45  0.0000000  0  8G05G13G29G30G24G20G15G21
 120014467.380 7  93517792.36045  22837994.891                    22837999.246
        46.400          32.100
 110828565.186 8  86359842.17246  21089949.266                    21089953.090
        48.300          40.000
 124582273.067 7  97077117.86044  23707222.070                    23707226.563
        42.100          27.100
 130367518.734 5 101585138.99442  24808122.039                    24808130.191
        33.000          16.300
 120126252.664 6  93604920.19744  22859266.703                    22859274.574
        40.800          28.800
 120771514.412 6  94107723.36144  22982063.117                    22982067.266
        40.800          26.800
 105042932.634 8  81851647.88948  19989003.531                    19989007.828
        52.200          48.100
 116016109.661 7  90402180.80346  22077134.133                    22077137.984
        47.000          38.500
 20  1  1  0 45 30.0000000  0  8G05G13G29G30G24G20G15G21
 120088879.244 7  93575775.62245  22852154.969                    22852159.703
        46.200          32.300
 110893255.155 8  86410249.92746  21102259.156                    21102263.121
        48.300          39.800
 124676086.658 6  97150219.32844  23725074.367                    23725078.609
        41.800          26.000
 130443328.960 5 101644211.85742  24822549.492                    24822556.227
        33.500          17.400
 120018802.001 6  93521192.41944  22838819.398                    22838826.957
        41.300          29.400
 120686776.448 6  94041693.79444  22965938.117                    22965942.289
        41.000          26.200
 105051027.545 8  81857955.60948  19990543.891                    19990548.336
        52.300          48.300
 115962704.822 7  90360566.64046  22066971.367                    22066975.348
        47.000          38.900
 20  1  1  0 46  0.0000000  0  8G05G13G29G30G24G20G15G21
 120163445.064 7  93633878.83745  22866343.930                    22866348.695
        46.400          32.500
 110958289.597 8  86460926.10546  21114635.094                    21114639.262
        48.700          40.100
 124770038.673 6  97223428.65544  23742952.391                    23742957.734
        41.600          27.200
 130519498.417 5 101703564.69642  24837044.055                    24837051.176
        34.500          16.300
 119911543.805 6  93437614.60545  22818408.586                    22818416.617
        40.400          30.700
 120602101.158 6  93975713.07044  22949825.406                    22949828.766
        41.300          27.100
 105059580.606 8  81864620.32748  19992171.664                    19992175.852
        53.200          48.300
 115909655.873 7  90319229.79146  22056876.492                    22056880.453
        47.000          39.000
 20  1  1  0 46 30.0000000  0  8G05G13G29G30G24G20G15G21
 120238165.935 7  93692102.87645  22880563.148                    22880567.715
        46.300          32.700
 111023668.133 8  86511870.40546  21127075.969                    21127080.453
        49.200          40.000
 124864127.116 6  97296744.29244  23760856.570                    23760861.781
        41.300          25.300
 130596026.124 5 101763196.62342  24851607.016                    24851613.477
        34.300          16.300
 119804482.565 6  93354190.27544  22798035.719                    22798043.641
        40.600          29.200
 120517491.063 6  93909783.13644  22933724.711                    22933728.379
        41.300          26.000
 105068592.370 8  81871642.47248  19993886.406                    19993890.434
        53.400          48.300
 115856966.579 7  90278173.19846  22046849.859                    22046853.883
        47.500          39.100
 20  1  1  0 47  0.0000000  0  8G05G13G29G30G24G20G15G21
 120313038.584 7  93750445.18045  22894810.984                    22894815.527
        46.900          32.600
 111089384.981 8  86563078.32046  21139581.266                    21139585.840
        48.700          39.900
 124958345.342 6  97370161.06944  23778785.500                    23778791.242
        41.800          25.100
 130672906.512 5 101823103.47042  24866236.344                    24866244.008
        33.300          17.800
 119697617.750 6  93270918.98844  22777700.141                    22777707.414
        40.600          29.600
 120432943.851 6  93843902.20844  22917635.672                    22917639.727
        41.300          25.100
 105078058.022 8  81879018.30648  19995687.758                    19995691.953
        53.000          48.400
 115804634.977 7  90237395.31746  22036892.094                    22036895.148
        47.000          38.500
 20  1  1  0 47 30.0000000  0  8G05G13G29G30G24G20G15G21
 120388069.352 7  93808910.70145  22909088.719                    22909093.711
        46.300          32.300
 111155444.171 8  86614552.99446  21152152.211                    21152156.203
        49.100          39.700
 125052696.862 6  97443681.69944  23796740.898                    23796745.660
        41.700          26.100
 130750143.719 5 101883288.19742  24880933.117                    24880941.961
        33.100          15.600
 119590958.590 6  93187807.97245  22757403.695                    22757411.035
        40.500          30.200
 120348467.111 6  93778076.17244  22901560.227                    22901564.285
        41.400          26.400
 105087983.063 8  81886752.10048  19997576.352                    19997580.777
        52.900          48.100
 115752669.432 7  90196902.68446  22027002.953                    22027006.680
        46.900          38.800
 20  1  1  0 48  0.0000000  0  8G05G13G29G30G24G20G15G21
 120463252.800 7  93867495.18145  22923395.430                    22923399.934
        45.800          32.200
 111221838.841 8  86666289.09346  21164786.758                    21164790.793
        48.700          39.700
 125147173.707 6  97517300.00144  23814719.086                    23814723.613
        41.400          25.300
 130827730.91315 101943745.77752  24895699.078                    24895705.871
        32.000          17.400
 119484503.565 6  93104856.03244  22737145.758                    22737154.031
        40.600          29.500
 120264056.860 6  93712301.96844  22885497.719                    22885501.555
        41.700          26.000
 105098361.559 8  81894839.23348  19999551.125                    19999555.738
        52.700          48.000
 115701067.370 7  90156693.28246  22017183.484                    22017187.195
        46.900          39.200
 20  1  1  0 48 30.0000000  0  8G05G13G29G30G24G20G15G21
 120538588.777 7  93926198.52145  22937731.836                    22937736.344
        46.400          31.500
 111288566.425 8  86718284.59646  21177484.570                    21177488.727
        48.500          40.200
 125241772.479 6  97591013.31443  23832719.164                    23832725.570
        41.400          22.900
 130905665.784 5 102004474.22542  24910529.602                    24910535.988
        33.000          16.900
 119378256.644 6  93022066.25044  22716927.867                    22716935.176
        40.700          29.400
 120179713.823 6  93646580.13844  22869447.281                    22869451.332
        41.400          25.800
 105109191.745 8  81903278.34048  20001612.289                    20001616.652
        52.200          48.000
 115649830.161 7  90116768.17446  22007433.422                    22007437.387
        47.000          38.800
 20  1  1  0 49  0.0000000  0  8G05G13G29G30G24G20G15G21
 120614077.133 7  93985020.58745  22952096.922                    22952101.203
        45.200          32.000
 111355624.690 8  86770537.78246  21190245.344                    21190249.391
        48.200          40.000
 125336489.773 6  97664818.96044  23850744.063                    23850750.188
        40.700          24.900
 130983945.809 5 102065471.54842  24925424.672                    24925432.500
        32.900          16.300
 119272220.092 6  92939440.39945  22696749.547                    22696757.102
        41.000          30.500
 120095439.340 6  93580911.72344  22853410.414                    22853413.699
        41.100          25.900
 105120473.178 8  81912069.06247  20003759.070                    20003763.344
        52.400          47.800
 115598959.688 7  90077128.84046  21997753.203                    21997756.270
        47.000          38.900
 20  1  1  0 49 30.0000000  0  8G05G13G29G30G24G20G15G21
 120689718.738 7  94043962.07645  22966490.977                    22966495.410
        45.500          32.300
 111423012.868 8  86823048.03546  21203068.977                    21203073.379
        48.900          39.900
 125431324.156 6  97738715.84944  23868791.055                    23868796.449
        41.900          24.600
 131062570.453 5 102126737.42742  24940388.125                    24940395.105
        34.000          17.400
 119166398.786 6  92856982.26345  22676612.500                    22676619.820
        41.000          30.200
 120011236.021 6  93515298.76544  22837387.219                    22837390.590
        41.200          27.400
 105132205.991 8  81921211.51647  20005991.633                    20005995.922
        52.700          47.900
 115548459.578 7  90037778.09646  21988143.188                    21988146.965
        47.000          38.900
 20  1  1  0 50  0.0000000  0  8G05G13G29G30G24G20G15G21
 120765514.753 7  94103023.88045  22980914.578                    22980918.965
        45.000          31.600
 111490729.932 8  86875814.56846  21215954.969                    21215958.969
        48.400          40.100
 125526273.453 6  97812702.28444  23886859.109                    23886864.750
        41.800          26.700
 131141538.701 5 102188271.16442  24955414.977                    24955421.176
        33.600          17.400
 119060796.880 6  92774695.10245  22656516.984                    22656524.395
        41.200          30.900
 119927105.605 6  93449742.60944  22821377.609                    22821381.137
        41.600          26.900
 105144389.921 8  81930705.48348  20008310.047                    20008314.441
        52.800          48.000
 115498332.662 7  89998718.15846  21978604.234                    21978607.801
        47.200          39.500
 20  1  1  0 50 30.0000000  0  8G05G13G29G30G24G20G15G21
 120841463.150 7  94162204.43645  22995366.820                    22995371.297
        44.600          31.600
 111558771.459 8  86928833.92046  21228902.750                    21228907.059
        48.700          39.300
 125621332.250 6  97886774.06844  23904947.852                    23904953.727
        41.900          26.100
 131220845.963 5 102250068.92443  24970506.273                    24970513.043
        33.700          18.300
 118955415.564 6  92692579.82145  22636464.047                    22636471.652
        41.400          30.900
 119843047.414 6  93384242.73044  22805381.734                    22805385.719
        41.600          26.800
 105157021.512 8  81940548.27948  20010713.953                    20010718.563
        52.600          48.000
 115448578.809 7  89959948.91746  21969136.594                    21969140.105
        46.900          39.100
 20  1  1  0 51  0.0000000  0  8G05G13G29G30G24G20G15G21
 120917563.137 7  94221503.10345  23009848.203                    23009853.094
        44.300          30.900
 111627134.925 8  86982104.13146  21241912.094                    21241916.254
        48.200          39.400
 125716497.494 6  97960928.76044  23923057.531                    23923062.773
        41.800          24.700
 131300489.729 5 102312128.98243  24985662.117                    24985668.727
        33.100          18.300
 118850257.381 6  92610638.40745  22616452.875                    22616460.453
        41.300          30.900
 119759062.241 6  93318799.74944  22789400.383                    22789403.730
        41.700          26.800
 105170099.840 8  81950739.18547  20013202.539                    20013206.973
        52.800          47.800
 115399199.481 7  89921471.50646  21959739.898                    21959743.672
        47.600          39.400
 20  1  1  0 51 30.0000000  0  8G05G13G29G30G24G20G15G21
 120993815.674 7  94280920.65045  23024358.492                    23024363.418
        45.100          30.400
 111695819.724 8  87035624.73546  21254982.180                    21254986.375
        49.100          39.200
 125811767.300 6  98035164.94644  23941187.008                    23941191.906
        41.800          24.900
 131380469.514 5 102374450.87042  25000881.438                    25000888.234
        33.700          16.900
 118745326.850 6  92528874.38745  22596485.203                    22596492.922
        41.300          31.000
 119675152.793 7  93253415.77944  22773432.805                    22773436.844
        42.100          27.500
 105183625.072 8  81961278.32047  20015776.375                    20015780.492
        52.800          47.900
 115350197.995 7  89883288.52546  21950415.172                    21950418.824
        47.200          38.700
 20  1  1  0 52  0.0000000  0  8G05G13G29G30G24G20G15G21
 121070218.586 7  94340455.35945  23038897.648                    23038902.383
        44.300          31.300
 111764821.168 8  87089392.08346  21268112.508                    21268116.945
        49.100          39.300
 125907135.981 7  98109478.18744  23959335.352                    23959340.527
        42.300          25.500
 131460780.537 5 102437030.82242  25016164.000                    25016171.961
        33.100          16.900
 118640625.293 6  92447288.79245  22576560.836                    22576569.047
        41.300          32.100
 119591317.770 7  93188089.79444  22757479.141                    22757483.121
        42.100          28.400
 105197593.454 8  81972162.77547  20018434.266                    20018438.523
        52.500          47.900
 115301573.904 7  89845399.61846  21941162.188                    21941166.297
        47.100          39.000
 20  1  1  0 52 30.0000000  0  8G05G13G29G30G24G20G15G21
 121146772.117 7  94400107.44445  23053465.172                    23053470.262
        44.000          30.400
 111834137.370 8  87143404.70346  21281303.570                    21281307.469
        48.600          38.900
 126002601.040 7  98183866.50143  23977501.234                    23977507.090
        42.400          23.400
 131541421.092 5 102499867.66242  25031510.047                    25031516.492
        33.500          17.800
 118536155.936 6  92365884.11245  22556681.367                    22556689.129
        41.200          31.800
 119507558.825 7  93122823.09144  22741541.094                    22741544.223
        42.800          27.600
 105212004.393 8  81983392.08147  20021176.695                    20021181.340
        53.000          47.600
 115253329.652 7  89807806.68646  21931981.633                    21931985.668
        47.200          38.900
 20  1  1  0 53  0.0000000  0  8G05G13G29G30G24G20G15G21
 121223477.022 7  94459877.49145  23068061.594                    23068066.766
        43.900          30.900
 111903767.100 8  87197661.63046  21294553.078                    21294557.711
        48.600          39.200
 126098160.414 7  98258328.30244  23995685.664                    23995691.078
        43.000          25.100
 131622389.835 5 102562960.16342  25046917.008                    25046924.648
        34.600          16.900
 118431923.055 6  92284663.70845  22536846.148                    22536854.367
        41.800          32.200
 119423877.680 7  93057617.01744  22725616.758                    22725620.566
        43.200          28.600
 105226857.442 8  81994965.88148  20024003.250                    20024007.590
        52.600          48.200
 115205467.661 7  89770511.61746  21922874.102                    21922877.930
        47.000          39.800
 20  1  1  0 53 30.0000000  0  8G05G13G29G30G24G20G15G21
 121300333.424 7  94519765.57844  23082687.219                    23082692.152
        44.500          28.500
 111973708.410 8  87252161.33846  21307862.844                    21307867.324
        49.300          37.600
 126193811.016 7  98332861.20843  24013887.758                    24013892.785
        42.700          22.900
 131703684.445 5 102626306.60842  25062385.938                    25062393.902
        31.300          15.600
 118327929.444 6  92203629.76045  22517057.219                    22517065.113
        41.200          30.200
 119340276.157 7  92992472.99644  22709707.859                    22709711.789
        42.600          28.000
 105242151.622 8  82006883.41247  20026913.648                    20026918.117
        53.000          46.600
 115157989.999 7  89733516.03546  21913839.086                    21913842.902
        47.000          38.400
 20  1  1  0 54  0.0000000  0  8G05G13G29G30G24G20G15G21
 121377339.430 7  94579770.24945  23097340.898                    23097345.711
        43.800          30.200
 112043957.709 8  87306901.04846  21321230.813                    21321235.000
        48.800          38.800
 126289548.229 7  98407461.61043  24032105.703                    24032110.801
        42.700          23.400
 131785301.487 5 102689904.27243  25077918.727                    25077925.746
        33.600          18.600
 118224177.262 7  92122783.93445  22497313.469                    22497321.688
        42.000          32.400
 119256753.225 7  92927390.19244  22693813.828                    22693817.465
        42.700          28.600
 105257884.258 8  82019142.60748  20029907.461                    20029911.949
        53.000          48.100
 115110897.236 7  89696820.36546  21904877.758                    21904881.641
        47.100          39.800
 20  1  1  0 54 30.0000000  0  8G05G13G29G30G24G20G15G21
 121454497.811 7  94639893.63745  23112023.563                    23112028.707
        43.700          30.000
 112114516.002 8  87361881.52846  21334657.680                    21334661.703
        49.900          38.800
 126385372.442 7  98482129.79443  24050340.133                    24050345.852
        43.200          22.900
 131867242.01015 102753754.04652  25093511.875                    25093517.883
        33.000          16.300
 118120673.252 7  92042131.48045  22477617.641                    22477624.598
        42.000          31.300
 119173314.188 7  92862372.77144  22677935.977                    22677939.895
        42.300          28.700
 105274057.556 8  82031745.16647  20032985.188                    20032989.613
        53.200          47.100
 115064194.702 7  89660428.77946  21895990.508                    21895994.070
        47.300          39.100
 20  1  1  0 55  0.0000000  0  8G05G13G29G30G24G20G15G21
 121531805.199 7  94700133.14445  23126734.930                    23126739.492
        44.800          30.600
 112185377.928 8  87417098.60246  21348142.258                    21348146.508
        49.200          39.000
 126481277.125 7  98556860.68244  24068590.578                    24068595.660
        42.800          24.700
 131949500.237 5 102817851.29942  25109164.672                    25109172.297
        32.500          17.400
 118017416.627 7  91961671.81545  22457967.398                    22457976.328
        42.600          31.900
 119089956.839 7  92797419.00244  22662073.633                    22662077.426
        42.900          27.700
 105290666.934 8  82044687.53948  20036145.711                    20036150.059
        53.000          48.000
 115017880.583 7  89624339.84746  21887177.188                    21887181.133
        47.100          39.800
 20  1  1  0 55 30.0000000  0  8G05G13G29G30G24G20G15G21
 121609262.438 7  94760489.41145  23141474.711                    23141479.383
        45.200          30.200
 112256541.869 8  87472551.00846  21361684.250                    21361688.297
        48.100          38.800
 126577260.187 7  98631652.64643  24086855.688                    24086860.961
        42.700          22.800
 132032075.100 5 102882195.39842  25124878.102                    25124884.699
        33.500          16.300
 117914411.810 7  91881408.35545  22438366.711                    22438374.488
        42.600          33.200
 119006683.060 7  92732530.35544  22646226.617                    22646230.770
        42.000          28.700
 105307712.110 8  82057969.48647  20039389.398                    20039393.477
        52.900          47.500
 114971957.773 7  89588555.82746  21878438.836                    21878442.512
        47.200          39.400
 20  1  1  0 56  0.0000000  0  8G05G13G29G30G24G20G15G21
 121686869.444 7  94820962.37445  23156242.492                    23156247.535
        45.700          30.600
 112328005.597 8  87528237.02846  21375283.453                    21375287.914
        49.300          38.500
 126673318.156 7  98706502.96743  24105134.344                    24105139.730
        42.500          22.500
 132114963.75315 102946783.89952  25140651.273                    25140658.223
        34.200          16.900
 117811661.856 7  91801343.49245  22418814.156                    22418821.938
        43.100          33.000
 118923493.597 7  92667707.41244  22630396.266                    22630399.875
        42.800          28.300
 105325191.424 8  82071589.72947  20042715.414                    20042719.844
        51.800          47.500
 114926427.468 7  89553077.66346  21869774.234                    21869778.070
        47.100          39.100
 20  1  1  0 56 30.0000000  0  8G05G13G29G30G24G20G15G21
 121764625.737 7  94881551.68545  23171039.266                    23171044.012
        44.500          30.800
 112399766.836 8  87584154.86446  21388938.977                    21388943.004
        49.000          38.400
 126769448.153 7  98781409.42043  24123427.555                    24123433.688
        42.700          21.700
 132198164.19615                  25156482.969
        33.200
 117709169.276 6  91721479.19145  22399310.492                    22399318.270
        41.700          33.200
 118840390.122 7  92602951.46344  22614582.734                    22614586.305
        43.400          28.600
 105343103.832 8  82085547.43447  20046124.164                    20046128.313
        51.900          47.700
 114881291.924 7  89517907.10246  21861185.633                    21861189.313
        47.300          39.900
 20  1  1  0 57  0.0000000  0  8G05G13G29G30G24G20G15G21
 121842529.376 7  94942255.79945  23185863.766                    23185868.602
        44.600          30.000
 112471821.743 8  87640301.53146  21402650.766                    21402655.070
        48.800          38.100
 126865645.192 7  98856368.12943  24141733.836                    24141738.746
        42.600          21.700
 132281672.199 5 103076686.52152  25172375.227                    25172382.586
        34.900          16.900
 117606936.188 7  91641817.08545  22379856.211                    22379863.906
        42.200          33.000
 118757371.725 7  92538261.79944  22598784.516                    22598788.129
        43.100          28.700
 105361446.270 8  82099840.24047  20049614.398                    20049619.148
        53.000          47.900
 114836551.184 7  89483044.17846  21852671.469                    21852675.621
        47.300          40.100
 20  1  1  0 57 30.0000000  0  8G05G13G29G30G24G20G15G21
 121920581.558 7  95003075.65144  23200716.383                    23200721.504
        43.900          29.300
 112544169.582 8  87696676.46146  21416417.914                    21416422.000
        49.300          38.100
 126961907.742 6  98931377.91543  24160052.117                    24160057.359
        41.800          21.700
 132365487.42315 103141997.06352  25188324.047                    25188332.215
        34.400          16.900
 117504966.776 7  91562360.44445  22360451.977                    22360459.414
        42.300          33.000
 118674441.474 7  92473640.83544  22583003.148                    22583007.188
        43.100          28.400
 105380219.118 8  82114468.41747  20053187.094                    20053191.301
        52.300          47.600
 114792208.496 7  89448491.43446  21844233.734                    21844237.211
        47.300          40.200
 20  1  1  0 58  0.0000000  0  8G05G13G29G30G24G20G15G21
 121998782.858 7  95064011.72144  23215597.266                    23215602.137
        43.400          29.800
 112616809.074 8  87753278.65646  21430240.508                    21430244.816
        48.300          37.700
 127058233.373 7  99006436.80143  24178381.672                    24178386.844
        42.000          22.200
 132449607.812 5 103207545.40642  25204332.609                    25204339.313
        34.300          17.800
 117403265.470 7  91483112.70645  22341099.148                    22341106.391
        42.300          33.300
 118591600.915 7  92409089.75544  22567239.813                    22567242.957
        43.700          28.500
 105399421.499 8  82129431.30447  20056840.984                    20056845.414
        52.900          47.400
 114748266.017 7  89414250.53646  21835871.789                    21835874.969
        47.400          40.100
 20  1  1  0 58 30.0000000  0  8G05G13G29G30G24G20G15G21
 122077130.182 7  95125061.56444  23230506.203                    23230511.621
        43.500          29.700
 112689735.052 8  87810104.08546  21444118.219                    21444122.422
        48.800          37.800
 127154616.382 7  99081540.39543  24196722.719                    24196728.016
        42.500          22.200
 132534028.242 5 103273327.48142  25220397.016                    25220404.777
        34.300          17.400
 117301831.903 7  91404073.59945  22321796.266                    22321804.410
        42.500          32.800
 118508848.745 7  92344607.56644  22551491.820                    22551495.891
        43.600          29.300
 105419049.580 8  82144725.90647  20060576.109                    20060580.938
        52.300          47.500
 114704723.095 7  89380320.97646  21827585.766                    21827589.102
        47.500          39.900
 20  1  1  0 59  0.0000000  0  9G05G13G29G30G24G10G20G15G21
 122155625.644 7  95186226.84244  23245444.133                    23245448.797
        43.200          29.700
 112762947.616 8  87867152.82246  21458049.961                    21458054.480
        49.100          37.900
 127251055.858 7  99156688.01043  24215075.320                    24215080.895
        42.100          22.300
 132618749.070 5 103339343.68942  25236518.281                    25236526.320
        33.400          17.800
 117200671.645 7  91325247.46045  22302546.711                    22302553.508
        42.200          33.200
 133520769.17815 104042223.05153  25408163.586                    25408170.938
        35.300          18.600
 118426188.537 7  92280197.01744  22535762.953                    22535766.133
        43.700          29.600
 105439104.378 8  82160353.02147  20064392.461                    20064397.086
        52.100          47.500
 114661583.629 7  89346705.79946  21819376.234                    21819380.152
        47.900          39.700
 20  1  1  0 59 30.0000000  0  9G05G13G29G30G24G10G20G15G21
 122234268.888 7  95247507.26244  23260409.578                    23260414.297
        43.600          29.600
 112836444.548 8  87924423.13946  21472035.766                    21472040.563
        49.100          38.000
 127347548.781 7  99231877.25543  24233437.086                    24233442.703
        42.300          21.800
 132703767.816 5 103405592.05742  25252696.023                    25252705.012
        33.900          16.900
 117099788.446 7  91246637.20745  22283349.172                    22283356.438
        42.500          33.800
 133433878.134 5 103974515.75543  25391628.789                    25391636.145
        35.400          19.000
 118343621.327 7  92215858.93744  22520050.586                    22520054.395
        43.800          29.700
 105459584.465 8  82176311.52147  20068289.773                    20068294.324
        51.600          47.400
 114618849.222 7  89313406.26046  21811244.508                    21811247.977
        47.500          39.600
 20  1  1  1  0  0.0000000  0  9G05G13G29G30G24G10G20G15G21
 122313059.780 7  95308902.73644  23275402.891                    23275407.707
        43.200          29.300
 112910223.500 8  87981913.20846  21486076.023                    21486079.926
        48.800          37.300
 127444091.975 6  99307105.67643  24251808.570                    24251814.094
        41.600          21.500
 132789081.878 5 103472070.53142  25268931.797                    25268939.832
        33.600          16.900
 116999184.266 7  91168244.36745  22264204.797                    22264212.383
        42.600          33.300
 133346941.904 5 103906773.24543  25375086.156                    25375093.191
        35.500          18.600
 118261148.372 7  92151594.30545  22504356.828                    22504360.074
        43.200          30.500
 105480488.392 8  82192600.29347  20072267.570                    20072272.063
        51.800          47.600
 114576521.358 7  89280423.50046  21803189.602                    21803193.141
        47.500          40.500
 20  1  1  1  0 30.0000000  0  9G05G13G29G30G24G10G20G15G21
 122391996.849 7  95370412.11444  23290424.023                    23290429.277
        43.200          29.200
 112984281.067 8  88039620.38546  21500168.484                    21500172.773
        48.800          37.800
 127540681.139 6  99382369.93943  24270188.508                    24270194.352
        41.700          22.000
 132874687.774 5 103538776.34342  25285222.016                    25285229.867
        34.000          16.900
 116898861.611 7  91090070.89845  22245113.813                    22245121.613
        42.600          33.400
 133259959.751 6 103838995.03842  25358533.227                    25358540.738
        36.100          17.800
 118178769.736 7  92087403.17945  22488680.258                    22488684.523
        43.900          30.900
 105501813.360 8  82209217.13747  20076325.680                    20076330.090
        51.600          47.700
 114534600.751 7  89247758.08946  21795212.719                    21795215.996
        47.400          40.400
 20  1  1  1  1  0.0000000  0  9G05G13G29G30G24G10G20G15G21
 122471081.037 7  95432036.13744  23305472.922                    23305478.082
        43.200          28.600
 113058616.526 8  88097544.10046  21514314.078                    21514318.355
        48.500          37.500
 127637314.119 6  99457668.32343  24288576.875                    24288583.414
        41.100          20.600
 132960584.597 5 103605708.97442  25301567.844                    25301575.820
        33.700          15.600
 116798824.555 7  91012119.96145  22226077.227                    22226085.000
        42.400          34.200
 133172933.652 5 103771182.43643  25341972.977                    25341980.516
        35.800          19.300
 118096488.029 7  92023287.57445  22473022.383                    22473026.422
        44.000          30.800
 105523559.778 8  82226162.38847  20080463.852                    20080468.270
        51.900          47.300
 114493090.428 7  89215412.38146  21787313.133                    21787317.074
        47.800          39.500
 20  1  1  1  1 30.0000000  0  8G05G13G29G24G10G20G15G21
 122550309.674 7  95493772.69744  23320549.852                    23320554.672
        43.300          28.200
 113133225.231 8  88155680.72446  21528511.664                    21528515.797
        48.300          37.400
 127733986.138 6  99532997.14543  24306973.766                    24306979.551
        41.100          22.600
 116699073.921 7  90934392.20945  22207095.984                    22207103.453
        42.500          34.300
 133085861.496 5 103703334.01343  25325403.531                    25325411.637
        35.500          19.000
 118014302.004 7  91959246.52545  22457383.141                    22457387.000
        43.500          30.800
 105545723.565 8  82243432.86047  20084681.656                    20084686.215
        51.800          47.600
 114451989.501 7  89183385.68346  21779492.219                    21779495.727
        47.600          39.900
 20  1  1  1  2  0.0000000  0  8G05G13G29G24G10G20G15G21
 122629683.981 7  95555622.77944  23335654.461                    23335659.352
        43.000          29.100
 113208106.487 8  88214029.74046  21542761.148                    21542765.488
        48.500          37.100
 127830695.600 6  99608355.13443  24325377.320                    24325383.027
        40.700          22.000
 116599614.664 7  90856891.50245  22188169.094                    22188176.547
        42.500          33.700
 132998745.234 5 103635451.17643  25308825.094                    25308833.109
        34.600          18.300
 117932214.792 7  91895282.46444  22441762.336                    22441766.156
        43.500          29.600
 105568304.831 8  82261028.64847  20088978.391                    20088982.852
        52.400          47.200
 114411301.370 8  89151680.64346  21771749.156                    21771752.801
        48.300          40.200
 20  1  1  1  2 30.0000000  0  8G05G13G29G24G10G20G15G21
 122709202.420 7  95617585.18544  23350786.258                    23350791.422
        43.000          28.700
 113283256.394 8  88272588.08946  21557061.664                    21557065.988
        48.700          37.500
 127927437.287 6  99683738.24043  24343786.594                    24343791.379
        40.800          21.100
 116500448.220 7  90779618.96445  22169298.469                    22169306.301
        42.600          35.200
 132911583.516 5 103567533.07043  25292239.836                    25292247.656
        35.200          19.000
 117850225.341 7  91831394.58145  22426160.219                    22426164.457
        44.100          30.700
 105591300.798 8  82278947.58047  20093354.750                    20093358.930
        53.100          47.400
 114371025.815 7  89120297.08846  21764085.141                    21764088.805
        47.900          40.600
 20  1  1  1  3  0.0000000  0  8G05G13G29G24G10G20G15G21
 122788864.696 7  95679659.64644  23365945.578                    23365950.199
        42.700          28.100
 113358672.856 8  88331354.13746  21571413.023                    21571416.980
        48.200          36.900
 128024208.564 6  99759144.35543  24362201.367                    24362206.770
        40.700          20.900
 116401577.781 7  90702577.06345  22150484.180                    22150491.762
        42.900          35.000
 132824377.092 5 103499579.98643  25275643.938                    25275653.164
        34.600          19.000
 117768335.613 7  91767584.41844  22410576.500                    22410580.996
        43.500          29.900
 105614710.405 8  82297188.82947  20097809.047                    20097813.641
        51.800          47.000
 114331164.704 7  89089236.47546  21756500.086                    21756503.117
        47.800          39.700
 20  1  1  1  3 30.0000000  0  8G05G13G29G24G10G20G15G21
 122868673.732 7  95741848.47844  23381132.648                    23381137.867
        42.900          28.100
 113434356.869 7  88390328.66746  21585815.328                    21585819.668
        47.800          37.600
 128121009.545 6  99834573.67243  24380622.070                    24380627.754
        40.400          21.300
 116303009.312 7  90625770.47845  22131727.188                    22131734.539
        43.100          35.100
 132737129.457 6 103431594.87043  25259042.961                    25259051.137
        36.900          21.700
 117686549.887 7  91703855.27645  22395013.438                    22395017.676
        44.500          30.800
 105638535.156 8  82315753.56247  20102343.125                    20102347.426
        52.300          47.500
 114291722.757 7  89058502.49046  21748994.484                    21748998.141
        47.800          40.600
 20  1  1  1  4  0.0000000  0  8G05G13G29G24G10G20G15G21
 122948627.711 7  95804150.24344  23396347.641                    23396352.746
        42.600          26.300
 113510305.371 8  88449509.29745  21600267.938                    21600272.047
        48.100          35.500
 128217836.121 6  99910022.89643  24399047.117                    24399052.590
        39.900          20.900
 116204744.683 7  90549200.65145  22113028.109                    22113035.063
        43.400          33.000
 132649839.911 5 103363577.06143  25242432.445                    25242440.270
        35.800          18.600
 117604867.964 7  91640207.04244  22379470.234                    22379473.859
        43.700          29.500
 105662772.405 8  82334639.72947  20106955.273                    20106959.246
        52.100          45.700
 114252700.602 7  89028095.61146  21741568.852                    21741572.105
        47.700          38.700
 20  1  1  1  4 30.0000000  0  8G05G13G29G24G10G20G15G21
 123028726.071 7  95866564.51844  23411589.734                    23411594.891
        42.400          28.300
 113586515.207 8  88508893.55246  21614769.906                    21614774.207
        48.300          36.500
 128314684.590 6  99985489.19743  24417477.188                    24417482.406
        40.200          20.400
 116106786.502 7  90472869.60645  22094387.125                    22094394.750
        43.300          35.600
 132562508.258 5 103295526.45243  25225813.445                    25225820.777
        35.600          20.400
 117523291.048 7  91576640.62845  22363946.430                    22363950.895
        44.800          31.000
 105687420.433 8  82353845.97447  20111645.547                    20111650.105
        51.700          47.300
 114214099.094 7  88998016.50446  21734222.727                    21734226.328
        47.800          40.400
 20  1  1  1  5  0.0000000  0  8G05G13G29G24G10G20G15G21
 123108966.538 7  95929089.52744  23426858.727                    23426864.387
        42.500          27.800
 113662982.250 8  88568478.24546  21629321.117                    21629325.164
        48.700          36.700
 128411549.808 6 100060968.54943  24435909.195                    24435916.016
        39.900          20.100
 116009136.028 7  90396778.34045  22075804.719                    22075812.063
        44.300          35.200
 132475133.024 6 103227441.87843  25209186.234                    25209194.258
        36.800          19.900
 117441818.357 7  91513155.42845  22348442.828                    22348446.758
        44.700          31.400
 105712475.557 8  82373369.44347  20116413.594                    20116418.051
        52.000          46.900
 114175917.929 8  88968264.94946  21726957.469                    21726961.160
        48.200          40.400
 20  1  1  1  5 30.0000000  0  8G05G13G29G24G10G20G15G21
 123189349.501 7  95991725.57844  23442155.242                    23442160.133
        42.200          28.800
 113739704.968 8  88628262.16346  21643921.063                    21643925.430
        48.500          36.700
 128508429.274 6 100136459.02243  24454345.523                    24454351.309
        39.700          20.100
 115911796.461 7  90320929.34145  22057281.320                    22057288.953
        43.700          35.200
 132387715.094 5 103159324.03643  25192550.445                    25192558.328
        34.600          19.000
 117360451.731 7  91449752.86945  22332959.289                    22332963.238
        44.300          31.200
 105737937.136 8  82393209.62547  20121258.602                    20121263.172
        52.000          46.700
 114138159.098 7  88938842.47946  21719772.180                    21719775.660
        47.600          40.600
 20  1  1  1  6  0.0000000  0  8G05G13G29G24G10G20G15G21
 123269876.450 7  96054473.82044  23457478.969                    23457484.383
        42.300          27.900
 113816683.621 8  88688245.50246  21658569.727                    21658573.980
        48.500          37.200
 128605322.479 6 100211960.13143  24472783.289                    24472789.277
        38.600          19.000
 115814772.729 7  90245326.44845  22038818.813                    22038826.320
        44.300          34.900
 132300257.379 6 103091175.22643  25175908.727                    25175915.035
        36.000          19.000
 117279194.646 7  91386435.67445  22317496.484                    22317500.164
        45.500          31.400
 105763805.852 8  82413367.07047  20126181.266                    20126185.883
        51.600          46.900
 114100826.531 7  88909752.16846  21712668.500                    21712671.758
        47.800          40.900
 20  1  1  1  6 30.0000000  0  8G05G13G29G24G10G20G15G21
 123350545.786 7  96117333.01344  23472829.844                    23472835.461
        42.300          28.000
 113893913.884 8  88748424.90946  21673266.070                    21673269.902
        49.100          37.300
 128702224.201 6 100287467.92943  24491222.789                    24491229.340
        38.800          19.900
 115718066.587 7  90169971.02745  22020415.914                    22020423.465
        43.600          34.400
 132212758.386 6 103022994.21043  25159257.930                    25159264.434
        36.000          19.600
 117198045.976 7  91323202.94945  22302054.297                    22302058.730
        45.000          31.900
 105790078.504 8  82433839.26147  20131180.734                    20131185.203
        51.500          46.700
 114063919.923 7  88880993.77246  21705644.813                    21705648.805
        47.700          40.900
 20  1  1  1  7  0.0000000  0  8G05G13G29G24G10G20G15G21
 123431356.549 6  96180302.40544  23488207.898                    23488212.867
        41.800          28.200
 113971393.464 7  88808798.58846  21688010.141                    21688014.508
        47.900          36.600
 128799131.461 6 100362980.05143  24509664.078                    24509669.887
        39.000          19.300
 115621680.804 7  90094865.22845  22002074.055                    22002081.309
        43.500          35.100
 132125218.308 5 102954781.22743  25142599.102                    25142607.164
        34.300          18.600
 117117007.719 7  91260056.26545  22286633.641                    22286637.336
        44.900          31.900
 105816753.225 8  82454624.75447  20136256.648                    20136261.039
        51.600          46.600
 114027440.547 8  88852568.27646  21698702.984                    21698706.742
        48.000          40.600
 20  1  1  1  7 30.0000000  0  8G05G13G29G24G10G20G15G21
 123512310.835 7  96243383.62844  23503612.828                    23503617.930
        42.200          28.500
 114049122.182 8  88869366.39946  21702801.313                    21702805.313
        48.000          36.400
 128896043.252 6 100438495.66043  24528106.719                    24528111.504
        39.800          19.900
 115525620.846 7  90020013.32945  21983794.852                    21983801.867
        43.800          35.000
 132037639.800 5 102886538.25142  25125933.281                    25125940.805
        33.700          17.800
 117036082.784 7  91196997.88045  22271234.586                    22271237.637
        45.000          32.300
 105843830.981 8  82475724.29447  20141409.289                    20141413.926
        51.400          46.700
 113991391.995 7  88824478.49046  21691843.148                    21691846.828
        47.900          40.700
 20  1  1  1  8  0.0000000  0  8G05G13G29G24G10G20G15G21
 123593406.919 7  96306575.35044  23519044.797                    23519050.406
        42.200          28.300
 114127096.404 8  88930125.51646  21717639.180                    21717643.430
        48.000          36.500
 128992955.219 6 100514011.44443  24546548.109                    24546553.246
        40.200          18.300
 115429888.099 7  89945416.37445  21965577.188                    21965585.141
        43.500          35.000
 131950021.867 5 102818264.53642  25109259.469                    25109267.938
        33.600          17.800
 116955271.467 7  91134028.04445  22255856.109                    22255859.992
        45.400          32.200
 105871308.589 8  82497135.40247  20146638.313                    20146642.977
        51.300          46.700
 113955774.307 8  88796724.44946  21685065.492                    21685069.082
        48.000          40.700
 20  1  1  1  8 30.0000000  0  8G05G13G29G24G10G20G15G21
 123674645.277 7  96369877.93244  23534504.328                    23534509.371
        42.100          28.900
 114205314.502 8  88991074.67245  21732523.273                    21732527.684
        48.400          35.600
 129089864.816 6 100589525.37343  24564988.867                    24564994.734
        39.400          18.300
 115334485.456 7  89871076.65945  21947422.719                    21947430.176
        43.500          35.800
 131862365.258 5 102749960.67843  25092580.063                    25092587.375
        35.500          19.600
 116874574.725 7  91071147.47945  22240500.609                    22240504.043
        45.200          33.200
 105899185.058 8  82518857.32147  20151942.938                    20151947.559
        51.400          46.600
 113920589.118 7  88769307.41946  21678369.930                    21678374.027
        47.600          41.000
 20  1  1  1  9  0.0000000  0  8G05G13G29G24G10G20G15G21
 123756023.023 7  96433289.14344  23549989.859                    23549995.098
        42.100          27.000
 114283772.332 8  89052210.63145  21747453.984                    21747457.773
        48.100          35.400
 129186766.694 6 100665033.27242  24583428.555                    24583435.027
        39.200          17.800
 115239414.023 7  89796995.03345  21929331.398                    21929339.055
        43.700          35.700
 131774668.655 5 102681625.71342  25075891.359                    25075898.980
        34.600          17.800
 116793993.050 7  91008356.57445  22225165.586                    22225169.668
        45.200          32.300
 105927456.803 8  82540887.24747  20157323.000                    20157327.387
        51.300          46.300
 113885836.406 7  88742227.37746  21671756.703                    21671760.555
        47.500          40.500
 20  1  1  1  9 30.0000000  0  8G05G13G29G24G10G20G15G21
 123837541.187 7  96496809.74444  23565502.258                    23565507.359
        42.300          27.700
 114362469.259 7  89113532.90045  21762429.602                    21762433.492
        47.800          35.800
 129283659.711 6 100740534.32643  24601867.055                    24601872.395
        39.000          18.600
 115144678.734 7  89723175.32346  21911304.125                    21911311.359
        44.300          36.000
 131686933.934 5 102613260.98942  25059196.367                    25059203.523
        34.600          17.800
 116713528.816 7  90945657.17245  22209853.922                    22209857.742
        45.100          32.400
 105956124.106 8  82563225.39547  20162778.102                    20162782.688
        51.700          46.500
 113851518.963 7  88715486.50046  21665226.305                    21665229.582
        47.700          41.000
 20  1  1  1 10  0.0000000  0  8G05G13G29G24G10G20G15G21
 123919198.822 7  96560439.05144  23581041.164                    23581046.672
        42.600          28.300
 114441401.913 7  89175038.84446  21777449.758                    21777454.059
        47.400          36.300
 129380539.638 6 100816025.12943  24620302.813                    24620307.887
        38.200          18.600
 115050280.919 7  89649618.58446  21893340.859                    21893347.910
        44.500          37.100
 131599160.660 5 102544866.26443  25042494.414                    25042501.773
        35.200          19.300
 116633181.874 7  90883049.17245  22194564.375                    22194568.531
        45.400          33.200
 105985184.326 8  82585869.71347  20168308.234                    20168312.832
        51.900          46.700
 113817637.020 8  88689084.98546  21658778.781                    21658782.676
        48.300          41.100
 20  1  1  1 10 30.0000000  0  8G05G13G29G24G10G20G15G21
 124000997.238 6  96624178.04444  23596607.234                    23596611.863
        41.300          27.900
 114520570.193 7  89236728.39646  21792515.148                    21792519.055
        46.400          36.100
 129477405.592 6 100891505.05143  24638736.180                    24638742.344
        39.300          19.900
 114956225.848 7  89576328.92246  21875442.617                    21875450.230
        44.500          37.000
 131511351.180 5 102476443.30843  25025783.602                    25025792.316
        34.600          19.300
 116552956.109 7  90820535.59245  22179298.141                    22179302.191
        45.600          32.900
 106014637.787 8  82608820.45647  20173912.953                    20173917.531
        51.700          46.400
 113784193.916 7  88663025.41546  21652414.828                    21652418.594
        47.800          41.100
 20  1  1  1 11  0.0000000  0  8G05G13G29G24G10G20G15G21
 124082935.657 6  96688026.12244  23612199.039                    23612204.137
        40.800          26.800
 114599971.168 7  89298599.27245  21807624.320                    21807628.602
        46.600          35.800
 129574253.633 6 100966970.97443  24657166.164                    24657171.559
        39.000          18.300
 114862515.996 7  89503308.25846  21857610.023                    21857617.820
        45.100          37.000
 131423505.363 5 102407992.06943  25009067.273                    25009075.898
        34.000          19.600
 116472851.873 7  90758116.71645  22164054.672                    22164058.426
        45.600          32.900
 106044482.582 8  82632076.12747  20179592.297                    20179597.121
        51.600          46.700
 113751190.648 7  88637308.58246  21646134.500                    21646138.188
        47.800          41.000
 20  1  1  1 11 30.0000000  0  8G05G13G29G24G10G20G15G21
 124165011.516 6  96751981.30744  23627817.711                    23627822.969
        41.000          25.600
 114679600.523 7  89360648.10445  21822777.609                    21822781.508
        47.200          35.400
 129671078.575 6 101042418.96543  24675591.055                    24675596.883
        38.200          19.300
 114769151.173 7  89430556.44546  21839843.477                    21839850.859
        44.500          37.100
 131335621.252 5 102339510.93343  24992344.336                    24992351.152
        34.100          18.600
 116392868.190 7  90695791.78345  22148834.219                    22148838.215
        45.400          33.200
 106074714.617 8  82655633.54947  20185345.266                    20185349.777
        51.900          46.800
 113718626.217 7  88611933.69646  21639937.625                    21639941.336
        47.600          41.300
 20  1  1  1 12  0.0000000  0  8G05G13G29G24G10G20G15G21
 124247229.660 6  96816047.35944  23643462.930                    23643469.012
        41.300          26.400
 114759461.389 7  89422877.33445  21837974.234                    21837978.582
        46.900          35.500
 129767882.843 6 101117850.77543  24694011.750                    24694017.918
        37.300          18.300
 114676140.157 7  89358080.32446  21822143.930                    21822151.367
        44.300          37.100
 131247704.85115 102271004.70353  24975613.695                    24975621.398
        34.000          18.300
 116313011.615 7  90633565.88645  22133638.156                    22133642.371
        45.600          33.600
 106105337.681 8  82679495.67447  20191172.828                    20191177.160
        51.300          46.400
 113686507.361 7  88586906.00546  21633825.563                    21633829.625
        47.700          41.400
 20  1  1  1 12 30.0000000  0  8G05G13G29G24G10G20G15G21
 124329585.281 6  96880220.54144  23659135.242                    23659140.332
        41.500          26.800
 114839547.330 7  89485281.93545  21853214.234                    21853218.438
        46.900          35.100
 129864659.259 6 101193260.95143  24712428.375                    24712434.180
        37.900          19.000
 114583481.862 7  89285879.05146  21804511.711                    21804518.973
        44.200          36.300
 131159752.33515 102202470.27753  24958877.070                    24958883.961
        34.700          19.000
 116233279.848 7  90571437.23745  22118465.586                    22118469.848
        45.800          32.500
 106136346.191 8  82703658.14547  20197073.438                    20197078.055
        51.700          46.200
 113654831.031 8  88562223.14246  21627798.125                    21627801.617
        48.100          41.400
 20  1  1  1 13  0.0000000  0  9G05G13G27G29G24G10G20G15G21
 124412077.414 6  96944500.09044  23674833.367                    23674838.250
        41.100          26.300
 114919855.348 7  89547859.59545  21868496.406                    21868500.953
        47.000          35.200
 132671993.83815 103380834.75153  25246645.680                    25246653.277
        34.900          18.300
 129961404.006 6 101268646.42843  24730838.477                    24730843.199
        38.500          19.000
 114491178.194 7  89213954.11546  21786947.055                    21786954.406
        44.000          36.900
 131071763.54815 102133907.62053  24942133.336                    24942140.395
        34.800          19.300
 116153673.022 7  90509405.95345  22103317.305                    22103321.113
        45.700          33.200
 106167737.874 8  82728119.19747  20203046.773                    20203051.375
        51.300          46.600
 113623597.949 7  88537885.67246  21621854.508                    21621858.207
        47.700          41.200
 20  1  1  1 13 30.0000000  0  9G05G13G27G29G24G10G20G15G21
 124494707.515 6  97008887.14744  23690556.719                    23690562.641
        41.300          25.700
 115000385.032 7  89610609.97645  21883820.688                    21883825.191
        47.400          34.200
 132645735.410 5 103360373.62642  25241648.367                    25241656.141
        34.300          17.800
 130058116.036 6 101344006.37942  24749241.539                    24749248.113
        37.600          17.800
 114399233.552 7  89142308.92745  21769450.383                    21769458.000
        44.000          35.300
 130983740.646 5 102065318.36242  24925382.727                    24925390.266
        33.200          17.400
 116074194.372 7  90447474.54445  22088193.141                    22088196.156
        46.000          32.300
 106199512.790 8  82752878.86747  20209093.570                    20209098.160
        51.500          44.900
 113592811.280 7  88513896.05246  21615995.992                    21615999.461
        47.600          40.300
 20  1  1  1 14  0.0000000  0  9G05G13G27G29G24G10G20G15G21
 124577475.254 6  97073381.45044  23706306.797                    23706312.332
        40.400          27.200
 115081134.096 7  89673531.30245  21899186.727                    21899190.949
        46.600          34.700
 132620003.459 5 103340322.75342  25236752.805                    25236759.426
        34.600          17.800
 130154791.928 6 101419338.20243  24767638.438                    24767644.410
        36.900          18.300
 114307651.069 7  89070945.95046  21752022.859                    21752030.391
        44.100          37.100
 130895684.013 5 101996702.83443  24908625.008                    24908633.316
        33.800          20.100
 115994845.333 7  90385644.13245  22073093.219                    22073097.102
        45.800          33.500
 106231669.285 8  82777935.86247  20215212.797                    20215217.348
        51.100          46.400
 113562471.869 7  88490254.94546  21610222.695                    21610226.277
        47.800          41.100
 20  1  1  1 14 30.0000000  0  9G05G13G27G29G24G10G20G15G21
 124660380.955 6  97137983.25644  23722083.367                    23722088.488
        40.600          24.400
 115162101.446 7  89736622.71845  21914594.328                    21914598.598
        47.200          35.400
 132594799.533 5 103320683.28942  25231956.734                    25231963.273
        35.300          17.400
 130251430.002 6 101494640.53842  24786028.539                    24786033.855
        37.600          17.400
 114216434.937 7  88999868.43946  21734664.734                    21734672.430
        44.300          36.100
 130807595.39015 101928062.35553  24891864.148                    24891871.445
        35.200          18.300
 115915628.555 7  90323916.78945  22058019.078                    22058022.285
        46.000          32.300
 106264207.079 8  82803289.97947  20221404.781                    20221409.148
        51.200          45.500
 113532582.500 7  88466964.52046  21604534.367                    21604538.438
        47.800          40.000
 20  1  1  1 15  0.0000000  0  9G05G13G27G29G24G10G20G15G21
 124743422.932 6  97202691.26244  23737886.211                    23737891.320
        41.300          26.900
 115243283.677 7  89799881.56845  21930043.000                    21930047.090
        47.700          34.800
 132570122.731 5 103301454.57343  25227261.898                    25227266.961
        35.400          19.000
 130348025.667 6 101569909.82442  24804409.469                    24804416.281
        36.200          17.400
 114125586.660 7  88929077.58346  21717376.836                    21717384.488
        44.400          36.400
 130719473.70616 101859396.11553  24875095.852                    24875101.512
        36.600          19.600
 115836543.368 7  90262291.97045  22042969.414                    22042973.215
        46.000          33.200
 106297122.982 8  82828938.72047  20227668.070                    20227672.523
        51.700          46.200
 113503142.643 7  88444024.37046  21598932.781                    21598936.188
        47.800          41.000
 20  1  1  1 15 30.0000000  0  9G05G13G27G29G24G10G20G15G21
 124826602.203 6  97267506.22544  23753714.586                    23753720.270
        41.700          27.600
 115324680.063 7  89863307.30845  21945531.922                    21945536.547
        47.800          34.400
 132545974.948 5 103282638.10243  25222664.750                    25222672.227
        34.800          19.000
 130444577.319 5 101645144.85142  24822782.414                    24822790.066
        34.800          17.800
 114035109.570 7  88858575.94846  21700160.055                    21700167.195
        44.800          36.700
 130631320.707 5 101790705.50243  24858319.336                    24858326.438
        34.400          19.000
 115757592.780 7  90200772.03545  22027945.195                    22027949.105
        46.300          33.700
 106330416.402 8  82854881.62947  20234003.766                    20234008.469
        51.900          45.900
 113474154.936 7  88421436.54046  21593416.414                    21593420.262
        47.800          41.400
 20  1  1  1 16  0.0000000  0  9G05G13G27G29G24G10G20G15G21
 124909916.235 6  97332426.22644  23769568.320                    23769573.699
        41.200          27.200
 115406286.194 7  89926896.47845  21961061.281                    21961065.746
        47.000          34.400
 132522354.737 5 103264232.74143  25218170.289                    25218177.742
        35.000          19.000
 130541080.331 5 101720341.94742  24841147.406                    24841153.555
        35.800          17.400
 113945005.179 7  88788364.74246  21683013.352                    21683020.391
        44.900          37.200
 130543135.26815 101721989.59353  24841538.641                    24841545.828
        35.200          19.000
 115678776.381 7  90139356.66545  22012946.992                    22012951.047
        46.500          33.300
 106364084.405 8  82881116.42547  20240410.578                    20240414.906
        51.900          45.900
 113445619.000 8  88399200.73847  21587986.359                    21587989.980
        48.200          42.000
 20  1  1  1 16 30.0000000  0  9G05G13G27G29G24G10G20G15G21
 124993366.731 7  97397452.54944  23785448.648                    23785454.590
        42.700          28.300
 115488102.314 7  89990649.27745  21976630.227                    21976634.438
        47.300          34.600
 132499264.620 5 103246240.38542  25213776.977                    25213783.676
        35.900          17.400
 130637533.768 5 101795500.41242  24859501.133                    24859508.172
        35.500          17.400
 113855278.069 7  88718447.50946  21665939.297                    21665946.500
        45.400          38.100
 130454919.847 5 101653250.33643  24824751.492                    24824759.516
        35.700          19.300
 115600097.558 7  90078048.49645  21997974.773                    21997979.074
        46.100          34.200
 106398127.195 8  82907643.26847  20246888.609                    20246893.184
        51.400          46.100
 113417537.952 7  88377319.39747  21582642.398                    21582646.223
        47.800          42.000
 20  1  1  1 17  0.0000000  0  9G05G13G27G29G24G10G20G15G21
 125076952.364 6  97462584.17344  23801355.094                    23801360.039
        41.800          27.400
 115570124.518 7  90054562.66345  21992238.555                    21992242.867
        47.000          34.800
 132476703.493 5 103228660.24042  25209483.094                    25209490.617
        34.300          17.400
 130733933.034 6 101870616.66442  24877846.094                    24877852.520
        36.300          17.800
 113765929.832 7  88648825.50946  21648936.891                    21648944.539
        45.400          38.500
 130366673.405 5 101584486.87743  24807958.719                    24807966.582
        35.400          19.900
 115521555.960 7  90016847.25645  21983029.148                    21983032.875
        46.400          34.000
 106432541.501 8  82934459.60147  20253437.383                    20253441.648
        51.200          45.900
 113389911.607 7  88355792.36646  21577385.664                    21577389.215
        47.700          41.300
 20  1  1  1 17 30.0000000  0  9G05G13G27G29G24G10G20G15G21
 125160671.395 7  97527819.73344  23817286.641                    23817291.734
        42.200          27.400
 115652350.292 7  90118634.66945  22007886.086                    22007890.090
        46.400          34.800
 132454671.301 5 103211492.31442  25205290.805                    25205298.316
        35.300          17.400
 130830274.748 5 101945688.07742  24896178.281                    24896185.480
        35.900          16.900
 113676962.710 7  88579500.47746  21632006.914                    21632014.469
        45.000          37.800
 130278396.071 6 101515699.35043  24791159.898                    24791168.637
        36.200          20.400
 115443152.977 7  89955754.02645  21968109.695                    21968113.301
        46.600          34.700
 106467325.338 8  82961563.87747  20260056.820                    20260061.371
        51.400          46.000
 113362740.327 7  88334619.93346  21572214.992                    21572218.449
        47.800          41.900
 20  1  1  1 18  0.0000000  0  9G05G13G27G29G24G10G20G15G21
 125244526.191 6  97593161.09844  23833243.000                    23833247.945
        41.500          27.800
 115734779.670 7  90182865.32745  22023571.672                    22023575.746
        46.600          35.300
 132433170.680 5 103194738.51443  25201199.859                    25201205.922
        35.400          19.000
 130926558.260 5 102020714.14142  24914500.242                    24914506.770
        35.600          17.400
 113588381.361 7  88510476.04846  21615150.414                    21615158.070
        44.700          38.400
 130190090.513 5 101446889.85443  24774356.516                    24774364.875
        35.900          21.100
 115364891.881 7  89894771.35445  21953217.031                    21953220.785
        47.300          34.600
 106502479.748 8  82988956.91147  20266746.258                    20266750.801
        52.000          45.800
 113336027.699 7  88313804.89846  21567131.445                    21567135.688
        47.800          41.400
 20  1  1  1 18 30.0000000  0  9G05G13G27G29G24G10G20G15G21
 125328514.772 7  97658606.70444  23849226.188                    23849231.191
        42.000          28.100
 115817409.387 7  90247252.10145  22039295.430                    22039299.977
        47.200          34.500
 132412200.944 6 103178398.47342  25197209.703                    25197215.875
        36.300          17.800
 131022779.392 6 102095691.62142  24932811.656                    24932817.023
        36.400          17.800
 113500188.309 7  88441754.18646  21598367.664                    21598375.715
        44.800          37.600
 130101756.393 5 101378058.11443  24757546.367                    24757554.938
        35.400          19.900
 115286773.145 7  89833899.61945  21938351.641                    21938355.262
        46.600          35.400
 106538001.539 8  83016636.21847  20273505.898                    20273510.699
        51.700          45.800
 113309773.842 7  88293347.33546  21562135.930                    21562139.379
        47.700          41.400
 20  1  1  1 19  0.0000000  0  9G05G13G27G29G24G10G20G15G21
 125412636.222 7  97724155.84244  23865234.242                    23865238.535
        42.500          27.300
 115900236.817 7  90311792.93145  22055056.961                    22055061.441
        45.900          34.300
 132391761.709 5 103162471.75443  25193319.500                    25193325.867
        34.800          18.300
 131118934.947 6 102170617.96942  24951109.844                    24951115.344
        36.000          16.300
 113412384.751 7  88373335.82746  21581659.195                    21581667.078
        44.900          38.100
 130013393.451 5 101309203.83543  24740731.828                    24740740.207
        35.400          19.000
 115208797.397 7  89773139.29345  21923513.289                    21923517.023
        47.000          34.800
 106573888.818 8  83044600.32147  20280334.703                    20280339.520
        52.200          45.900
 113283979.112 7  88273247.54046  21557226.805                    21557231.059
        47.900          41.300
 20  1  1  1 19 30.0000000  0  9G05G13G27G29G24G10G20G15G21
 125496891.636 7  97789809.35944  23881266.227                    23881272.258
        42.200          27.500
 115983261.048 7  90376487.11545  22070855.938                    22070859.883
        45.800          34.900
 132371854.268 6 103146959.41143  25189531.711                    25189538.168
        36.200          18.300
 131215022.659 6 102245491.44142  24969394.273                    24969400.461
        36.300          16.900
 113324975.093 7  88305224.40046  21565025.813                    21565033.398
        44.800          37.800
 129925003.254 5 101240328.37143  24723911.453                    24723919.738
        35.800          20.600
 115130967.404 7  89712492.55345  21908702.563                    21908706.328
        46.700          35.100
 106610140.775 8  83072848.59247  20287233.359                    20287238.082
        52.000          45.400
 113258645.657 8  88253507.17746  21552406.359                    21552409.992
        48.100          41.300
 20  1  1  1 20  0.0000000  0  9G05G13G27G29G24G10G20G15G21
 125581278.859 7  97855565.61844  23897325.453                    23897329.953
        43.000          27.400
 116066478.164 7  90441331.60845  22086691.906                    22086695.746
        46.400          34.200
 132352477.568 6 103131860.66943  25185844.539                    25185851.980
        37.500          19.600
 131311038.228 5 102320308.65842  24987665.695                    24987671.918
        35.300          17.400
 113237960.043 7  88237420.45946  21548467.703                    21548474.906
        45.100          38.000
 129836584.973 6 101171431.00743  24707086.000                    24707094.707
        36.200          21.300
 115053282.776 7  89651959.07945  21893919.953                    21893923.527
        46.600          34.400
 106646754.257 8  83101378.57247  20294200.758                    20294205.641
        52.400          45.600
 113233773.247 8  88234126.07246  21547673.289                    21547677.098
        48.200          41.800
 20  1  1  1 20 30.0000000  0  9G05G13G27G29G24G10G20G15G21
 125665799.175 7  97921425.53444  23913409.344                    23913414.621
        43.100          27.300
 116149888.196 7  90506326.40745  22102564.156                    22102568.387
        46.500          34.000
 132333634.022 5 103117177.34942  25182258.242                    25182265.609
        35.400          17.400
 131406980.977 6 102395069.21142  25005922.172                    25005928.617
        36.300          16.900
 113151344.656 7  88169927.94546  21531985.078                    21531992.320
        45.100          38.600
 129748141.342 5 101102513.90643  24690256.273                    24690263.512
        35.900          20.400
 114975747.138 7  89591541.69645  21879165.469                    21879168.746
        47.000          34.600
 106683729.820 8  83130190.69347  20301237.039                    20301241.930
        51.800          45.600
 113209364.889 7  88215106.56846  21543028.422                    21543032.305
        47.600          41.500
 20  1  1  1 21  0.0000000  0  9G05G13G27G29G24G10G20G15G21
 125750451.371 7  97987388.28044  23929517.211                    23929522.160
        42.500          26.700
 116233488.189 7  90571469.24245  22118472.484                    22118476.773
        46.800          33.500
 132315322.757 6 103102908.79343  25178774.781                    25178781.324
        37.700          19.000
 131502846.834 6 102469769.74542  25024165.000                    25024171.285
        36.200          16.300
 113065131.413 7  88102748.79946  21515579.570                    21515586.449
        45.300          38.600
 129659671.955 6 101033576.71143  24673421.336                    24673428.180
        37.300          22.200
 114898361.149 7  89531240.93445  21864439.023                    21864443.102
        46.400          34.200
 106721064.840 8  83159282.90947  20308341.750                    20308346.414
        52.400          45.500
 113185420.731 7  88196448.76646  21538471.969                    21538475.797
        47.700          41.400
 20  1  1  1 21 30.0000000  0  9G05G13G27G29G24G10G20G15G21
 125835234.720 7  98053453.19444  23945652.016                    23945657.301
        42.200          27.200
 116317276.004 7  90636758.42045  22134417.023                    22134421.152
        46.600          33.900
 132297543.937 6 103089055.16543  25175391.555                    25175398.188
        37.700          20.100
 131598633.137 6 102544408.39042  25042392.711                    25042399.281
        36.300          17.800
 112979321.790 7  88035884.15446  21499250.383                    21499257.648
        45.600          38.600
 129571177.162 6 100964619.75243  24656581.086                    24656588.270
        37.400          21.700
 114821125.839 7  89471057.57845  21849741.242                    21849745.133
        45.500          33.800
 106758757.532 8  83188653.83547  20315514.305                    20315518.918
        51.500          45.400
 113161942.117 8  88178153.74446  21534004.164                    21534008.063
        48.300          41.200
 20  1  1  1 22  0.0000000  0  9G05G13G27G29G24G10G20G15G21
 125920151.128 7  98119621.77444  23961810.594                    23961815.949
        43.000          25.800
 116401251.440 7  90702193.78945  22150397.602                    22150401.645
        46.600          33.700
 132280299.774 6 103075618.10543  25172109.563                    25172115.879
        36.800          18.300
 131694338.848 6 102618984.23243  25060604.836                    25060611.023
        37.100          18.300
 112893921.184 7  87969338.23646  21482999.391                    21483006.430
        45.600          38.400
 129482659.664 6 100895645.09543  24639736.852                    24639743.789
        37.700          21.100
 114744045.044 7  89410994.63145  21835073.219                    21835077.617
        46.300          34.000
 106796808.303 8  83218303.77147  20322755.375                    20322759.801
        51.500          45.200
 113138931.790 8  88160223.61046  21529625.695                    21529629.441
        48.500          41.700
 20  1  1  1 22 30.0000000  0  9G05G13G27G29G24G10G20G15G21
 126005197.064 7  98185891.29944  23977994.078                    23978000.227
        42.800          26.300
 116485409.488 7  90767771.47245  22166411.680                    22166416.352
        46.400          33.200
 132263587.682 6 103062595.65943  25168928.969                    25168936.359
        36.000          18.600
 131789958.223 6 102693492.74443  25078800.523                    25078806.973
        36.900          18.600
 112808929.569 7  87903111.00946  21466825.648                    21466832.902
        45.800          38.800
 129394117.261 6 100826651.00843  24622887.109                    24622895.754
        37.400          21.300
 114667117.068 7  89351050.75545  21820434.531                    21820438.258
        46.500          34.400
 106835212.790 8  83248229.33447  20330063.438                    20330068.230
        52.300          45.400
 113116387.836 8  88142656.87946  21525335.680                    21525339.570
        48.700          41.600
 20  1  1  1 23  0.0000000  0  9G05G13G27G29G24G10G20G15G21
 126090372.256 7  98252261.56044  23994202.617                    23994207.082
        42.600          25.600
 116569748.263 7  90833489.97345  22182460.688                    22182465.285
        46.300          32.500
 132247407.782 6 103049987.92943  25165850.211                    25165858.000
        37.000          19.000
 131885488.630 6 102767931.99442  25096981.023                    25096985.301
        37.800          17.800
 112724349.325 7  87837204.32146  21450730.336                    21450737.898
        45.600          38.500
 129305550.543 6 100757638.02043  24606034.258                    24606041.742
        38.500          21.100
 114590343.614 7  89291227.29545  21805825.281                    21805829.133
        46.400          33.600
 106873969.375 8  83278429.27047  20337438.453                    20337443.102
        51.000          44.700
 113094311.499 8  88125454.53246  21521134.805                    21521138.609
        48.000          41.300
 20  1  1  1 23 30.0000000  0  9G05G13G27G29G24G10G20G15G21
 126175678.468 7  98318733.85844  24010435.953                    24010441.613
        42.300          26.800
 116654268.129 7  90899349.57145  22198544.609                    22198548.727
        45.800          33.100
 132231762.408 5 103037796.69243  25162873.008                    25162880.270
        35.200          18.600
 131980929.355 6 102842301.30643  25115141.672                    25115148.090
        37.900          18.600
 112640185.721 7  87771622.29546  21434715.016                    21434722.145
        45.400          39.400
 129216962.330 6 100688608.24243  24589176.109                    24589183.734
        38.600          21.500
 114513728.736 7  89231527.39245  21791245.906                    21791249.867
        45.700          35.400
 106913078.564 8  83308903.95147  20344880.625                    20344885.164
        51.500          45.500
 113072706.104 7  88108619.15946  21517023.688                    21517026.867
        47.700          41.700
 20  1  1  1 24  0.0000000  0  9G05G13G27G29G24G10G20G15G21
 126261113.352 7  98385306.48143  24026693.664                    24026698.492
        43.100          22.600
 116738964.903 7  90965347.03345  22214661.836                    22214666.340
        45.200          31.400
 132216649.974 6 103026020.77443  25159997.516                    25160005.516
        36.700          18.300
 132076275.573 6 102916596.98443  25133285.102                    25133291.516
        38.600          18.300
 112556438.995 7  87706365.10846  21418778.617                    21418785.898
        45.800          37.500
 129128351.492 6 100619560.84743  24572313.516                    24572320.992
        38.800          22.000
 114437271.581 7  89171950.38845  21776696.148                    21776700.293
        45.800          33.200
 106952536.814 8  83339650.62847  20352389.789                    20352393.594
        52.200          43.600
 113051570.539 8  88092149.87746  21513001.570                    21513005.008
        48.100          39.600
 20  1  1  1 24 30.0000000  0  9G05G13G27G29G24G10G20G15G21
 126346677.359 7  98451979.67744  24042976.266                    24042981.664
        42.900          26.500
 116823837.642 7  91031481.60945  22230812.547                    22230816.996
        45.400          32.800
 132202071.488 6 103014660.89243  25157222.898                    25157230.348
        36.900          19.600
 132171525.479 6 102990817.62643  25151410.188                    25151416.359
        37.400          18.300
 112473113.139 7  87641435.86346  21402921.898                    21402929.559
        46.100          39.400
 129039719.752 6 100550497.16643  24555448.039                    24555455.391
        37.800          21.800
 114360975.080 7  89112498.57745  21762177.523                    21762181.711
        45.700          35.100
 106992343.945 8  83370669.15947  20359964.430                    20359969.047
        51.600          45.100
 113030906.648 8  88076048.13847  21509069.188                    21509072.684
        48.100          42.100
 20  1  1  1 25  0.0000000  0  9G05G13G27G29G24G10G20G15G21
 126432369.419 6  98518752.68743  24059282.461                    24059288.301
        41.100          22.600
 116908883.841 7  91097751.35445  22246996.672                    22247000.910
        45.900          32.100
 132188026.433 5 103003716.69443  25154550.133                    25154557.207
        35.000          19.300
 132266675.918 6 103064960.77143  25169517.305                    25169523.289
        38.800          18.300
 112390210.304 7  87576836.24946  21387146.477                    21387153.586
        45.600          39.400
 128951067.090 6 100481417.18543  24538578.422                    24538585.477
        38.700          21.700
 114284839.999 7  89053172.55345  21747689.898                    21747694.047
        45.400          35.200
 107032497.512 8  83401957.64247  20367605.344                    20367610.035
        52.000          44.500
 113010715.366 8  88060314.66046  21505226.836                    21505230.336
        48.700          40.700
 20  1  1  1 25 30.0000000  0  9G05G13G27G29G24G10G20G15G21
 126518190.828 7  98585626.47444  24075614.195                    24075620.270
        42.700          26.000
 116994102.761 7  91164155.67745  22263213.141                    22263217.320
        45.800          31.700
 132174516.291 5 102993189.30343  25151979.727                    25151987.250
        34.800          19.300
 132361725.445 6 103139025.24743  25187604.555                    25187611.070
        39.200          18.300
 112307734.760 7  87512569.57946  21371451.414                    21371459.090
        46.000          38.400
 128862395.677 6 100412322.59643  24521704.281                    24521711.738
        38.800          22.800
 114208869.134 7  88993974.47145  21733233.000                    21733237.176
        45.100          35.000
 107072997.189 8  83433515.82747  20375312.211                    20375316.742
        52.000          44.300
 112990998.736 8  88044951.04446  21501475.297                    21501478.863
        48.500          41.100
 20  1  1  1 26  0.0000000  0  9G05G13G27G29G24G10G20G15G21
 126604139.889 6  98652599.70143  24091968.711                    24091974.422
        40.600          22.300
 117079491.016 7  91230691.96545  22279462.008                    22279466.438
        45.200          31.500
 132161539.741 5 102983077.68043  25149509.445                    25149517.613
        34.300          18.600
 132456669.963 6 103213007.92442  25205671.680                    25205678.289
        38.800          17.800
 112225687.843 7  87448636.91446  21355838.648                    21355846.055
        45.900          39.300
 128773704.652 6 100343212.70243  24504826.727                    24504833.727
        39.200          22.200
 114133062.599 7  88934904.44845  21718807.273                    21718811.629
        44.900          34.500
 107113839.883 8  83465341.28947  20383084.180                    20383089.176
        51.700          44.100
 112971756.304 8  88029956.93546  21497813.453                    21497817.117
        48.000          40.900
 20  1  1  1 26 30.0000000  0  8G05G13G27G24G10G20G15G21
 126690216.613 7  98719672.47144  24108350.266                    24108355.031
        42.100          24.500
 117165047.769 7  91297359.53845  22295742.953                    22295747.387
        45.300          31.500
 132149097.593 5 102973382.49343  25147142.453                    25147150.023
        34.800          19.000
 112144072.257 7  87385040.34946  21340307.695                    21340315.258
        46.100          38.300
 128684995.677 6 100274088.83143  24487947.047                    24487952.930
        39.600          22.900
 114057423.276 7  88875964.72145  21704413.430                    21704418.121
        44.700          34.100
 107155025.149 8  83497433.69447  20390921.750                    20390926.242
        51.500          43.900
 112952989.862 8  88015333.72746  21494242.227                    21494245.918
        48.500          40.700
 20  1  1  1 27  0.0000000  0  8G05G13G27G24G10G20G15G21
 126776420.534 7  98786844.27344  24124753.586                    24124758.563
        42.200          24.100
 117250770.669 7  91364156.57845  22312055.125                    22312059.625
        45.400          30.400
 132137189.847 6 102964103.69243  25144876.758                    25144883.598
        37.000          18.300
 112062891.559 7  87321782.66246  21324859.570                    21324867.027
        46.300          39.000
 128596269.317 6 100204951.41743  24471062.469                    24471069.641
        39.600          22.600
 113981951.949 7  88817155.89545  21690051.570                    21690056.156
        45.000          34.500
 107196551.226 8  83529791.66447  20398823.914                    20398828.684
        51.000          43.700
 112934700.395 7  88001082.18646  21490761.508                    21490765.398
        47.900          40.200
 20  1  1  1 27 30.0000000  0  8G05G13G27G24G10G20G15G21
 126862749.737 6  98854113.78443  24141181.063                    24141186.816
        40.900          22.200
 117336656.335 7  91431080.45445  22328398.656                    22328403.246
        45.200          30.800
 132125814.972 6 102955240.11042  25142711.516                    25142719.293
        36.300          17.800
 111982146.504 7  87258864.43646  21309494.383                    21309501.723
        46.500          39.200
 128507524.897 6 100135799.94943  24454174.203                    24454181.813
        39.900          22.600
 113906649.346 7  88758478.53645  21675722.039                    21675726.297
        44.900          33.800
 107238415.332 8  83562413.03847  20406790.500                    20406795.027
        51.400          44.100
 112916887.521 8  87987202.01846  21487372.172                    21487375.859
        48.500          40.700
 20  1  1  1 28  0.0000000  0  8G05G13G27G24G10G20G15G21
 126949206.149 7  98921482.35843  24157633.484                    24157638.926
        42.600          22.900
 117422704.961 7  91498131.31445  22344773.203                    22344777.863
        45.200          31.200
 132114974.991 6 102946793.34943  25140649.648                    25140655.914
        37.100          19.300
 111901841.714 7  87196289.28346  21294212.789                    21294220.371
        46.200          39.600
 128418765.151 6 100066636.51143  24437284.461                    24437291.063
        39.700          22.500
 113831519.091 7  88699935.48745  21661425.445                    21661429.297
        45.100          34.900
 107280617.496 8  83595297.82847  20414821.102                    20414826.027
        51.200          44.300
 112899553.644 8  87973695.08746  21484073.578                    21484077.199
        48.100          40.700
 20  1  1  1 28 30.0000000  0  8G05G13G27G24G10G20G15G21
 127035788.047 6  98988948.74743  24174109.781                    24174115.059
        40.900          22.900
 117508913.605 7  91565306.86145  22361178.672                    22361182.680
        45.100          31.300
 132104668.930 6 102938762.64043  25138688.680                    25138694.992
        36.100          18.300
 111821978.857 7  87134058.48446  21279015.328                    21279022.840
        46.400          39.400
 128329989.970 6  99997461.07643  24420391.117                    24420397.672
        39.000          22.200
 113756561.775 7  88641527.19545  21647161.789                    21647165.523
        45.000          34.600
 107323155.294 8  83628444.15347  20422915.945                    20422920.410
        50.900          43.800
 112882699.455 7  87960561.94946  21480866.469                    21480870.223
        47.500          40.900
 20  1  1  1 29  0.0000000  0  8G05G13G27G24G10G20G15G21
 127122495.385 7  99056512.83344  24190609.938                    24190614.840
        42.200          25.400
 117595279.992 7  91632605.32945  22377613.273                    22377617.828
        44.600          31.000
 132094896.396 6 102931147.63243  25136829.305                    25136835.242
        36.900          18.300
 111742560.291 7  87072173.88846  21263902.383                    21263909.563
        46.300          39.400
 128241199.747 6  99928273.88943  24403494.563                    24403501.184
        39.400          21.700
 113681778.174 7  88583254.27145  21632930.852                    21632934.691
        45.500          34.800
 107366026.645 8  83661850.38147  20431073.867                    20431078.488
        51.500          43.700
 112866325.041 8  87947802.64946  21477750.336                    21477754.168
        48.000          40.600
 20  1  1  1 29 30.0000000  0  8G05G13G27G24G10G20G15G21
 127209325.818 6  99124172.89443  24207132.125                    24207137.527
        40.800          22.500
 117681801.498 7  91700024.66045  22394077.984                    22394082.094
        45.000          30.100
 132085656.454 6 102923947.66843  25135070.258                    25135076.633
        37.500          19.000
 111663586.849 7  87010636.14546  21248874.359                    21248881.590
        46.000          39.500
 128152394.388 6  99859074.94843  24386596.195                    24386602.316
        39.400          22.000
 113607169.693 7  88525117.79945  21618733.445                    21618737.281
        45.700          35.500
 107409229.392 8  83695514.85647  20439295.148                    20439299.863
        51.700          43.900
 112850430.336 8  87935417.16346  21474725.797                    21474729.246
        48.600          40.500
 20  1  1  1 30  0.0000000  0  8G05G13G27G24G10G20G15G21
 127296280.360 7  99191929.64744  24223679.805                    24223685.621
        42.100          26.000
 117768477.423 7  91767564.31945  22410571.977                    22410576.625
        44.100          30.900
 132076950.355 6 102917163.65443  25133413.617                    25133420.008
        36.100          19.600
 111585063.723 7  86949449.28546  21233931.789                    21233939.238
        46.100          39.600
 128063576.046 6  99789865.85243  24369693.492                    24369701.438
        38.700          22.600
 113532739.119 7  88467119.96446  21604569.836                    21604573.484
        45.800          36.300
 107452762.991 8  83729437.13547  20447579.188                    20447583.910
        51.100          44.600
 112835017.636 7  87923407.25146  21471792.609                    21471796.590
        47.600          41.200
 20  1  1  1 30 30.0000000  0  8G05G13G27G24G10G20G15G21
 127383359.920 6  99259783.77943  24240250.711                    24240255.477
        41.600          22.500
 117855306.907 7  91835223.63745  22427095.047                    22427099.559
        44.600          30.900
 132068778.592 5 102910796.05843  25131858.719                    25131865.504
        35.800          18.300
 111506993.939 7  86888615.69446  21219075.531                    21219083.000
        46.400          39.200
 127974746.144 6  99720647.75843  24352790.070                    24352797.887
        39.200          22.300
 113458488.922 7  88409262.67245  21590440.586                    21590444.004
        45.600          35.700
 107496626.791 8  83763616.71147  20455926.195                    20455930.754
        50.500          44.300
 112820088.421 7  87911774.08646  21468951.867                    21468955.934
        47.800          41.600
 20  1  1  1 31  0.0000000  0  8G05G13G27G24G10G20G15G21
 127470562.127 6  99327733.54544  24256844.547                    24256850.309
        41.900          25.300
 117942285.866 7  91902999.42345  22443646.367                    22443651.016
        44.600          30.700
 132061139.478 6 102904843.43443  25130404.859                    25130410.246
        36.300          19.000
 111429378.472 7  86828136.10546  21204305.898                    21204313.082
        46.300          40.200
 127885903.945 6  99651420.06743  24335883.984                    24335891.535
        39.600          23.200
 113384419.159 7  88351545.98146  21576345.313                    21576349.742
        46.200          36.700
 107540817.574 8  83798051.06947  20464335.617                    20464340.129
        50.900          44.300
 112805642.089 7  87900517.19846  21466203.070                    21466206.648
        47.600          41.900
 20  1  1  1 31 30.0000000  0  8G05G13G27G24G10G20G15G21
 127557887.219 6  99395778.96643  24273462.789                    24273468.090
        41.400          23.800
 118029413.054 7  91970890.72545  22460226.117                    22460230.949
        44.100          31.600
 132054033.256 6 102899306.10743  25129052.766                    25129059.527
        37.300          19.900
 111352220.273 7  86768012.83046  21189623.000                    21189630.313
        46.700          39.600
 127797050.739 6  99582183.82343  24318975.547                    24318982.836
        39.500          22.500
 113310531.571 7  88293971.23545  21562285.117                    21562288.828
        46.000          35.900
 107585334.383 8  83832739.47447  20472806.859                    20472811.383
        50.800          43.900
 112791679.995 7  87889637.62746  21463545.734                    21463549.559
        47.800          41.300
 20  1  1  1 32  0.0000000  0  8G05G13G27G24G10G20G15G21
 127645335.665 6  99463920.61043  24290102.992                    24290108.438
        41.300          23.800
 118116688.132 7  92038897.25445  22476834.164                    22476838.512
        43.900          31.200
 132047460.865 6 102894184.73443  25127801.992                    25127809.277
        37.100          20.100
 111275522.479 7  86708248.31346  21175028.055                    21175035.492
        46.700          41.000
 127708188.463 6  99512940.50543  24302065.844                    24302073.781
        39.300          23.000
 113236829.038 7  88236540.68646  21548259.656                    21548263.727
        45.800          37.300
 107630176.645 8  83867681.48447  20481339.992                    20481344.867
        51.000          44.500
 112778203.726 8  87879136.62446  21460981.492                    21460985.137
        48.700          41.500
 20  1  1  1 32 30.0000000  0  8G05G13G27G24G10G20G15G21
 127732904.839 6  99532156.25743  24306766.477                    24306772.473
        41.100          23.000
 118204106.668 7  92107015.58045  22493469.625                    22493474.207
        43.800          30.800
 132041419.811 5 102889477.39543  25126652.164                    25126659.402
        35.700          19.600
 111199286.188 7  86648843.41546  21160520.797                    21160528.145
        46.900          41.100
 127619315.639 6  99443688.95043  24285153.953                    24285161.527
        39.900          23.000
 113163311.433 7  88179254.23246  21534269.633                    21534274.242
        45.600          36.100
 107675340.484 8  83902874.08347  20489934.516                    20489938.820
        50.800          44.300
 112765211.736 7  87869012.98946  21458509.195                    21458513.098
        47.800          41.300
 20  1  1  1 33  0.0000000  0  8G05G13G27G24G10G20G15G21
 127820595.572 6  99600486.67943  24323453.656                    24323458.582
        41.000          22.900
 118291668.117 7  92175245.24845  22510131.508                    22510136.438
        43.500          30.300
 132035910.960 6 102885184.73743  25125605.023                    25125611.324
        37.000          19.900
 111123514.733 7  86589800.72146  21146102.141                    21146109.672
        47.300          41.400
 127530434.245 6  99374430.74044  24268240.539                    24268248.047
        38.900          24.300
 113089981.456 7  88122113.99546  21520315.734                    21520320.027
        46.000          36.900
 107720825.521 8  83938316.97047  20498590.125                    20498594.660
        51.100          44.400
 112752706.236 8  87859268.43446  21456129.500                    21456133.145
        48.000          41.700
 20  1  1  1 33 30.0000000  0  8G05G13G27G24G10G20G15G21
 127908405.989 6  99668910.34044  24340163.359                    24340169.809
        41.100          24.400
 118379369.289 7  92243583.79844  22526820.688                    22526824.848
        44.000          29.400
 132030932.855 5 102881305.70743  25124656.727                    25124665.105
        35.800          20.900
 111048208.982 7  86531120.91546  21131771.625                    21131779.066
        46.800          40.400
 127441543.875 6  99305165.52044  24251324.242                    24251332.215
        38.800          25.500
 113016839.249 7  88065120.06746  21506397.109                    21506401.688
        45.900          36.400
 107766629.111 8  83974008.07847  20507306.172                    20507310.688
        51.200          43.000
 112740686.664 7  87849902.52346  21453842.469                    21453846.063
        47.900          40.600
 20  1  1  1 34  0.0000000  0  8G05G13G27G24G10G20G15G21
 127996336.496 6  99737427.54143  24356896.078                    24356902.520
        40.300          22.200
 118467209.463 7  92312030.66645  22543536.219                    22543540.617
        43.500          30.500
 132026486.086 5 102877840.68243  25123809.609                    25123818.934
        34.900          19.000
 110973372.782 7  86472806.99746  21117530.930                    21117538.168
        46.800          40.800
 127352646.503 6  99235894.87444  24234408.156                    24234416.148
        39.500          25.100
 112943887.680 7  88008274.68546  21492514.758                    21492519.051
        45.900          37.400
 107812750.447 8  84009946.76847  20516082.758                    20516087.426
        51.200          44.900
 112729154.721 7  87840916.58846  21451647.688                    21451651.281
        47.800          41.700
 20  1  1  1 34 30.0000000  0  8G05G13G27G24G10G20G15G21
 128084388.780 6  99806039.70543  24373652.305                    24373657.320
        40.900          23.000
 118555188.731 7  92380585.92244  22560278.016                    22560282.438
        43.200          29.600
 132022572.542 5 102874791.18843  25123065.039                    25123073.863
        34.900          19.600
 110899010.714 7  86414862.53746  21103380.336                    21103387.801
        47.100          40.400
 127263744.927 6  99166620.92543  24217491.063                    24217498.539
        40.100          22.600
 112871130.717 7  87951580.94446  21478669.695                    21478673.582
        46.100          36.700
 107859189.986 8  84046133.41047  20524920.133                    20524924.586
        51.000          43.400
 112718113.261 7  87832312.84546  21449546.695                    21449550.266
        47.900          41.100
 20  1  1  1 35  0.0000000  0  8G05G13G27G24G10G20G15G21
 128172558.715 6  99874743.50043  24390429.883                    24390436.766
        40.200          21.700
 118643301.477 7  92449245.17244  22577045.492                    22577050.184
        43.700          29.000
 132019187.938 5 102872153.85743  25122422.031                    25122429.648
        35.500          19.300
 110825120.952 7  86357286.09846  21089319.422                    21089327.090
        46.700          40.800
 127174836.180 6  99097341.39043  24200572.406                    24200579.570
        40.100          23.200
 112798566.002 7  87895037.01146  21464861.047                    21464864.852
        46.200          37.700
 107905942.351 8  84082563.81147  20533816.688                    20533821.418
        50.800          44.300
 112707558.820 7  87824088.59446  21447538.531                    21447541.941
        47.900          41.600
 20  1  1  1 35 30.0000000  0  8G05G13G27G24G10G20G15G21
 128260846.483 6  99943539.08643  24407230.766                    24407237.055
        39.200          20.900
 118731546.664 7  92518007.62644  22593838.383                    22593842.578
        43.700          29.700
 132016332.659 5 102869928.95543  25121878.594                    25121886.012
        34.800          19.300
 110751707.240 7  86300080.61346  21075349.289                    21075356.719
        47.000          41.000
 127085921.831 6  99028057.50344  24183652.727                    24183659.262
        39.500          24.500
 112726195.880 7  87838644.71446  21451089.602                    21451093.387
        46.400          36.600
 107953006.846 8  84119237.44047  20542772.602                    20542777.160
        50.900          43.800
 112697493.030 7  87816245.11246  21445622.734                    21445626.438
        47.800          41.300
 20  1  1  1 36  0.0000000  0  8G05G13G27G24G10G20G15G21
 128349253.918 6 100012428.00643  24424054.289                    24424059.543
        39.800          22.000
 118819924.973 7  92586873.80644  22610655.945                    22610660.305
        42.900          29.300
 132014008.759 5 102868118.07543  25121437.000                    25121444.172
        35.200          19.300
 110678774.057 7  86243249.56046  21061470.680                    21061477.922
        46.700          41.300
 126997005.343 6  98958771.95944  24166732.117                    24166738.523
        40.000          26.000
 112654024.428 7  87782407.22346  21437355.867                    21437359.613
        46.300          37.500
 108000384.236 8  84156154.88447  20551788.305                    20551792.699
        50.600          44.100
 112687919.038 7  87808784.85047  21443801.078                    21443804.734
        47.700          42.100
 20  1  1  1 36 30.0000000  0  8G05G13G27G24G10G20G15G21
 128437779.434 6 100081408.83143  24440899.992                    24440905.574
        39.900          21.700
 118908433.459 7  92655841.43844  22627498.469                    22627502.957
        44.200          29.400
 132012214.654 6 102866720.06543  25121095.133                    25121102.516
        38.100          19.900
 110606323.018 7  86186794.20747  21047684.016                    21047691.035
        47.800          42.000
 126908086.295 6  98889484.40944  24149811.594                    24149818.039
        39.700          24.100
 112582052.449 7  87726325.16046  21423660.219                    21423663.422
        46.600          37.300
 108048071.513 8  84193313.78247  20560862.977                    20560867.813
        51.100          43.900
 112678836.163 7  87801707.27047  21442072.508                    21442075.988
        47.900          42.000
 20  1  1  1 37  0.0000000  0  8G05G13G27G24G10G20G15G21
 128526423.824 6 100150482.37243  24457767.820                    24457775.074
        38.600          22.300
 118997071.208 7  92724909.78044  22644366.031                    22644370.176
        43.000          29.900
 132010951.086 6 102865735.40943  25120854.938                    25120861.820
        36.800          18.600
 110534357.295 7  86130717.02746  21033988.836                    21033996.191
        47.900          40.900
 126819166.880 6  98820196.56444  24132889.930                    24132897.293
        40.300          25.500
 112510282.945 7  87670400.87446  21410002.266                    21410006.570
        47.500          37.900
 108096068.674 8  84230714.15847  20569996.453                    20570001.078
        51.400          44.400
 112670246.181 8  87795013.76746  21440437.797                    21440441.465
        48.200          41.300
 20  1  1  1 37 30.0000000  0  8G05G13G27G24G10G20G15G21
 128615185.394 6 100219647.14343  24474659.469                    24474665.301
        39.200          20.600
 119085835.407 7  92794076.65444  22661256.711                    22661261.453
        43.800          28.900
 132010216.353 6 102865162.86343  25120715.477                    25120720.910
        36.300          19.000
 110462878.197 8  86075019.03146  21020387.016                    21020394.629
        48.300          41.400
 126730246.666 6  98750908.10644  24115969.648                    24115976.648
        39.700          26.300
 112438716.307 7  87614634.66546  21396384.070                    21396387.684
        47.300          37.300
 108144372.983 8  84268353.86947  20579188.141                    20579193.043
        51.100          44.100
 112662148.521 7  87788703.89746  21438896.961                    21438900.637
        47.800          41.800
 20  1  1  1 38  0.0000000  0  8G05G13G27G24G10G20G15G21
 128704061.773 6 100288901.42943  24491572.289                    24491577.777
        38.800          21.500
 119174722.554 7  92863339.33544  22678171.805                    22678176.305
        42.400          28.300
 132010008.212 6 102865000.63543  25120675.352                    25120681.531
        36.500          19.300
 110391886.116 7  86019700.52947  21006877.469                    21006885.012
        47.900          42.000
 126641324.828 6  98681618.39944  24099048.711                    24099055.863
        40.600          25.400
 112367352.377 7  87559026.40546  21382803.836                    21382807.992
        46.700          36.800
 108192981.194 8  84306230.38147  20588438.547                    20588442.996
        51.400          44.500
 112654542.081 7  87782776.78846  21437449.656                    21437453.352
        47.800          41.400
 20  1  1  1 38 30.0000000  0  8G05G13G27G24G10G20G15G21
 128793053.349 6 100358245.47943  24508506.617                    24508512.500
        38.700          20.400
 119263731.711 7  92932697.08944  22695109.844                    22695114.145
        42.600          28.100
 132010326.893 6 102865248.94843  25120735.320                    25120742.664
        36.500          19.000
 110321384.797 7  85964764.44046  20993461.422                    20993469.051
        46.900          41.700
 126552403.098 6  98612328.74944  24082127.648                    24082134.133
        40.400          25.600
 112296193.924 7  87503578.25946  21369262.914                    21369267.156
        46.400          36.500
 108241892.187 8  84344342.82547  20597745.688                    20597750.355
        51.100          43.200
 112647428.205 7  87777233.49946  21436096.008                    21436099.551
        47.400          40.700
 20  1  1  1 39  0.0000000  0  8G05G13G27G24G10G20G15G21
 128882160.714 6 100427679.72743  24525463.000                    24525469.297
        38.600          21.500
 119352861.966 7  93002149.19944  22712070.383                    22712075.020
        42.600          27.500
 132011172.782 5 102865908.04243  25120896.586                    25120903.793
        35.800          19.600
 110251377.070 7  85910212.97046  20980139.891                    20980146.789
        46.400          41.500
 126463483.221 6  98543040.53544  24065206.609                    24065213.738
        40.000          25.300
 112225243.246 7  87448292.01446  21355761.125                    21355765.305
        46.000          37.300
 108291105.418 8  84382690.78047  20607110.719                    20607115.137
        49.700          43.800
 112640808.078 7  87772074.95446  21434835.914                    21434839.949
        47.100          41.100
 20  1  1  1 39 30.0000000  0  8G05G13G27G24G10G20G15G21
 128971384.789 6 100497204.89843  24542441.977                    24542447.906
        38.300          20.100
 119442113.562 7  93071695.86444  22729054.602                    22729058.691
        43.100          27.900
 132012547.325 6 102866979.13542  25121157.836                    25121165.266
        36.000          17.800
 110181866.555 7  85856048.92946  20966912.086                    20966919.613
        47.300          41.500
 126374568.286 6  98473756.19044  24048286.125                    24048293.180
        39.300          24.900
 112154504.197 7  87393170.67646  21342300.172                    21342303.879
        46.600          37.200
 108340621.162 8  84421274.46147  20616533.367                    20616538.508
        51.300          43.800
 112634684.370 8  87767303.22546  21433670.727                    21433674.191
        48.300          41.300
 20  1  1  1 40  0.0000000  0  8G05G13G27G24G10G20G15G21
 129060720.553 6 100566817.14643  24559443.203                    24559448.035
        39.100          20.400
 119531479.625 7  93141331.74044  22746060.555                    22746065.156
        43.300          27.500
 132014444.665 5 102868457.52542  25121519.648                    25121526.516
        34.800          17.400
 110112850.813 7  85802270.43246  20953778.828                    20953786.469
        46.800          41.600
 126285653.781 6  98404472.18044  24031366.719                    24031372.855
        39.600          26.700
 112083973.396 7  87338211.60746  21328878.344                    21328882.762
        45.800          37.500
 108390432.658 8  84460088.60247  20626012.125                    20626016.895
        50.500          43.400
 112629052.210 8  87762914.51846  21432599.047                    21432602.375
        48.400          41.500
 20  1  1  1 40 30.0000000  0  8G05G13G27G24G10G20G15G21
 129150171.003 6 100636518.72443  24576464.188                    24576469.867
        37.900          20.600
 119620962.100 7  93211058.31544  22763088.602                    22763093.176
        42.700          27.600
 132016868.009 6 102870345.81643  25121980.789                    25121986.953
        36.000          18.600
 110044336.504 7  85748882.66246  20940741.000                    20940748.547
        47.300          41.600
 126196744.625 6  98335192.32944  24014447.445                    24014454.211
        40.000          26.000
 112013656.479 7  87283419.20746  21315497.344                    21315501.750
        46.900          38.200
 108440542.358 8  84499135.11447  20635547.391                    20635552.176
        50.900          43.700
 112623915.991 8  87758912.26046  21431621.734                    21431625.465
        48.500          41.300
 20  1  1  1 41  0.0000000  0  8G05G13G27G24G10G20G15G21
 129239734.958 6 100706308.74643  24593508.563                    24593513.141
        38.300          20.100
 119710559.224 7  93280874.22944  22780138.234                    22780142.707
        42.800          27.900
 132019816.706 5 102872643.48443  25122541.352                    25122548.621
        35.500          18.300
 109976325.036 7  85695886.71046  20927799.109                    20927806.500
        46.300          41.800
 126107841.742 6  98265917.34244  23997530.359                    23997536.949
        40.400          24.900
 111943555.135 7  87228794.78246  21302157.852                    21302161.918
        46.400          38.100
 108490948.663 8  84538412.74247  20645139.758                    20645144.578
        50.000          43.600
 112619276.130 8  87755296.77346  21430738.789                    21430742.336
        49.100          41.200
 20  1  1  1 41 30.0000000  0  8G05G13G27G24G10G20G15G21
 129329409.851 6 100776185.26843  24610572.250                    24610577.500
        36.700          19.300
 119800266.702 7  93350776.12444  22797209.438                    22797213.805
        42.900          28.700
 132023287.318 6 102875347.80243  25123202.141                    25123208.695
        36.200          19.000
 109908816.299 7  85643282.49247  20914952.672                    20914959.703
        46.300          42.100
 126018943.261 6  98196645.83544  23980612.938                    23980620.145
        39.600          26.200
 111873668.349 7  87174337.55146  21288858.953                    21288863.094
        47.000          38.300
 108541647.160 8  84577918.05747  20654787.297                    20654791.863
        49.800          43.700
 112615130.363 7  87752066.29346  21429949.969                    21429953.492
        47.500          40.900
 20  1  1  1 42  0.0000000  0  8G05G13G27G24G10G20G15G21
 129419197.566 6 100846149.59343  24627658.266                    24627664.406
        36.300          18.600
 119890085.203 7  93420764.54744  22814301.195                    22814305.027
        42.500          27.600
 132027281.905 6 102878460.48442  25123962.594                    25123968.766
        37.700          17.800
 109841815.160 7  85591073.81546  20902202.500                    20902210.023
        46.300          41.300
 125930052.856 6  98127380.59244  23963697.016                    23963705.074
        39.400          26.500
 111804000.521 7  87120050.93646  21275601.523                    21275605.035
        46.100          37.900
 108592638.888 8  84617651.85547  20664490.961                    20664495.316
        50.500          43.100
 112611481.556 8  87749223.05446  21429255.688                    21429259.090
        48.500          41.100
 20  1  1  1 42 30.0000000  0  8G05G13G27G24G10G20G15G21
 129509096.711 5 100916200.82443  24644765.219                    24644771.188
        35.300          18.600
 119980012.372 7  93490837.63144  22831414.070                    22831417.813
        42.000          27.500
 132031798.898 6 102881980.18243  25124822.430                    25124829.059
        37.000          19.600
 109775323.250 7  85539261.93647  20889549.703                    20889556.719
        46.800          42.000
 125841170.614 6  98058121.71244  23946784.055                    23946791.531
        39.500          26.800
 111734553.090 8  87065936.05746  21262386.156                    21262389.723
        48.100          38.100
 108643921.594 8  84657612.39147  20674249.602                    20674254.227
        50.400          43.500
 112608329.407 8  87746766.82846  21428655.500                    21428659.570
        49.000          41.600
 20  1  1  1 43  0.0000000  0  8G05G13G27G24G10G20G15G21
 129599108.269 5 100986339.66942  24661893.188                    24661900.230
        34.300          17.400
 120070047.968 6  93560995.20344  22848546.961                    22848551.422
        41.900          27.800
 132036838.901 6 102885907.42743  25125781.250                    25125787.785
        37.800          18.600
 109709343.058 7  85487848.80146  20876993.719                    20877001.160
        46.600          41.300
 125752299.108 6  97988871.19844  23929872.258                    23929879.418
        39.500          25.800
 111665328.518 7  87011994.83546  21249213.375                    21249217.254
        46.800          37.400
 108695494.935 8  84697799.39047  20684063.469                    20684068.148
        49.800          42.800
 112605675.640 7  87744698.94146  21428150.570                    21428153.957
        47.900          40.900
 20  1  1  1 43 30.0000000  0  8G05G13G27G24G10G20G15G21
 129689227.398 6 101056562.24443  24679043.695                    24679049.457
        36.000          19.600
 120160185.869 6  93631232.50944  22865698.922                    22865703.746
        41.300          27.900
 132042396.889 6 102890238.30343  25126837.859                    25126845.715
        36.400          19.000
 109643873.199 7  85436833.32647  20864535.453                    20864543.004
        46.700          42.200
 125663434.745 6  97919626.23444  23912961.688                    23912969.281
        39.400          27.300
 111596324.739 7  86958225.65946  21236082.188                    21236085.727
        45.900          37.600
 108747353.122 8  84738208.35647  20693931.773                    20693936.430
        49.900          43.100
 112603516.326 7  87743016.34946  21427739.781                    21427743.371
        47.000          41.700
 20  1  1  1 44  0.0000000  0  8G05G13G27G24G10G20G15G21
 129779457.117 5 101126871.08943  24696213.133                    24696219.371
        34.100          18.600
 120250427.738 7  93701550.82444  22882872.211                    22882876.656
        42.200          25.400
 132048475.485 6 102894974.83043  25127994.750                    25128002.465
        36.000          19.000
 109578919.767 7  85386220.26146  20852175.188                    20852182.633
        46.700          40.700
 125574582.119 6  97850390.44444  23896053.992                    23896061.145
        39.700          26.100
 111527546.609 7  86904632.30846  21222993.938                    21222997.641
        46.500          36.200
 108799498.082 8  84778840.77746  20703854.836                    20703859.723
        50.000          41.700
 112601855.180 7  87741721.94346  21427423.977                    21427427.277
        47.700          40.500
 20  1  1  1 44 30.0000000  0  8G05G13G27G24G10G20G15G21
 129869795.399 5 101197264.42343  24713403.266                    24713410.348
        34.600          19.000
 120340770.798 6  93771947.97144  22900064.016                    22900068.094
        41.700          27.400
 132055072.619 6 102900115.45843  25129251.219                    25129258.508
        37.400          20.400
 109514482.517 7  85336009.41647  20839913.445                    20839920.703
        47.200          43.000
 125485740.899 6  97781163.51544  23879147.828                    23879155.070
        39.500          26.400
 111458994.845 7  86851215.35546  21209949.617                    21209953.426
        47.200          38.100
 108851926.755 8  84819694.27047  20713831.656                    20713836.418
        50.500          42.600
 112600691.282 8  87740814.99446  21427202.203                    21427205.848
        48.500          41.400
 20  1  1  1 45  0.0000000  0  8G05G13G27G24G10G20G15G21
 129960244.424 6 101267744.10143  24730616.664                    24730623.133
        37.700          20.600
 120431215.905 7  93842424.65844  22917274.250                    22917278.844
        42.500          26.800
 132062190.150 6 102905661.58143  25130605.578                    25130612.820
        36.900          19.600
 109450567.255 7  85286205.31547  20827750.625                    20827757.906
        47.500          42.600
 125396914.809 6  97711948.37144  23862244.977                    23862251.992
        39.400          26.200
 111390673.925 7  86797978.26846  21196948.211                    21196952.184
        46.500          37.800
 108904640.606 8  84860769.98447  20723862.977                    20723867.520
        50.800          43.000
 112600027.650 8  87740297.86846  21427076.141                    21427079.656
        49.100          41.000
 20  1  1  1 45 30.0000000  0  8G05G13G27G24G10G20G15G21
 130050802.375 5 101338308.66843  24747848.227                    24747855.766
        35.200          19.300
 120521760.384 7  93912978.77944  22934504.641                    22934509.699
        42.500          26.400
 132069825.950 6 102911611.52143  25132058.867                    25132065.359
        37.100          19.600
 109387173.948 7  85236807.93147  20815687.172                    20815694.613
        47.300          42.200
 125308103.571 6  97642744.82244  23845345.016                    23845352.449
        39.700          27.900
 111322584.258 7  86744921.38046  21183991.422                    21183994.813
        47.700          38.100
 108957636.495 8  84902065.46647  20733947.586                    20733952.184
        50.800          42.800
 112599863.290 8  87740169.78646  21427044.547                    21427048.531
        48.000          41.700
 20  1  1  1 46  0.0000000  0  8G05G13G27G24G10G20G15G21
 130141467.815 6 101408956.97442  24765101.289                    24765108.176
        37.100          17.400
 120612401.698 6  93983608.34644  22951753.273                    22951757.523
        41.600          26.400
 132077978.431 6 102917964.09443  25133609.438                    25133616.793
        36.900          19.000
 109324304.163 7  85187818.48847  20803723.359                    20803731.102
        46.700          42.300
 125219307.532 6  97573553.11344  23828447.266                    23828454.664
        39.800          26.100
 111254727.220 7  86692045.77746  21171078.211                    21171082.105
        46.700          38.800
 109010912.390 8  84943579.14447  20744085.594                    20744089.910
        49.900          42.700
 112600197.586 8  87740430.27046  21427108.078                    21427111.910
        48.500          40.800
 20  1  1  1 46 30.0000000  0  8G05G13G27G24G10G20G15G21
 130232238.034 6 101479686.96943  24782375.461                    24782380.953
        37.100          18.300
 120703136.036 6  94054310.41044  22969019.258                    22969023.969
        40.600          26.900
 132086644.475 5 102924716.84443  25135257.906                    25135265.484
        35.700          19.900
 109261957.767 7  85139236.87547  20791859.352                    20791866.602
        47.600          42.600
 125130525.515 6  97504372.34544  23811553.047                    23811560.262
        40.400          27.200
 111187102.066 8  86639350.85646  21158209.633                    21158213.746
        48.300          39.000
 109064464.508 8  84985308.05447  20754276.453                    20754281.008
        50.400          42.400
 112601028.627 8  87741077.81846  21427266.211                    21427270.109
        48.500          41.000
 20  1  1  1 47  0.0000000  0  8G05G13G27G24G10G20G15G21
 130323114.787 5 101550499.92743  24799669.016                    24799674.926
        35.400          20.100
 120793963.880 6  94125085.31944  22986303.383                    22986307.660
        40.900          25.300
 132095825.092 6 102931870.53243  25137006.766                    25137013.125
        38.200          20.100
 109200138.937 7  85091066.35447  20780095.602                    20780103.055
        47.200          42.500
 125041760.503 6  97435204.80044  23794661.219                    23794668.254
        38.700          27.700
 111119712.738 7  86586839.69146  21145386.398                    21145390.273
        47.200          38.700
 109118293.285 8  85027252.54447  20764519.500                    20764524.242
        50.900          42.000
 112602358.728 7  87742114.26146  21427519.328                    21427523.137
        47.300          40.800
 20  1  1  1 47 30.0000000  0  8G05G13G27G24G10G20G15G21
 130414097.140 6 101621395.15543  24816982.508                    24816988.285
        36.200          20.100
 120884883.303 6  94195931.60244  23003605.508                    23003609.371
        40.500          26.000
 132105519.699 6 102939424.78843  25138850.781                    25138858.418
        37.200          20.600
 109138849.540 7  85043308.37847  20768432.578                    20768440.074
        47.300          42.400
 124953013.823 6  97366051.56244  23777772.578                    23777780.793
        38.400          25.700
 111052561.284 7  86534513.88546  21132607.719                    21132611.402
        47.700          38.400
 109172397.311 8  85069411.51947  20774815.125                    20774820.254
        50.200          42.600
 112604188.146 7  87743539.77446  21427867.344                    21427871.480
        46.900          40.900
 20  1  1  1 48  0.0000000  0  8G05G13G27G24G10G20G15G21
 130505187.158 5 101692374.34943  24834316.125                    24834321.934
        35.900          18.600
 120975895.359 6  94266850.05944  23020923.977                    23020928.445
        41.300          26.700
 132115729.493 6 102947380.44843  25140794.086                    25140801.145
        38.400          19.900
 109078094.430 8  84995966.72747  20756871.406                    20756878.695
        48.000          43.000
 124864288.755 6  97296915.16144  23760888.648                    23760896.742
        38.800          28.000
 110985651.956 7  86482376.75146  21119875.078                    21119879.156
        47.900          39.500
 109226777.377 8  85111785.58747  20785163.508                    20785168.137
        50.000          42.500
 112606519.516 7  87745356.41546  21428311.305                    21428314.840
        47.200          41.300
 20  1  1  1 48 30.0000000  0  8G05G13G27G24G10G20G15G21
 130596381.773 5 101763434.97843  24851670.500                    24851675.863
        35.300          19.300
 121066995.849 6  94337837.45244  23038259.828                    23038264.031
        40.800          25.800
 132126450.953 6 102955734.78443  25142834.328                    25142841.707
        37.700          20.100
 109017872.260 7  84949040.35347  20745411.359                    20745418.973
        47.800          43.900
 124775583.907 6  97227794.49444  23744009.344                    23744016.359
        38.900          27.000
 110918983.842 7  86430427.57746  21107188.438                    21107192.449
        47.400          39.200
 109281429.166 8  85154371.38747  20795563.219                    20795568.223
        50.500          42.700
 112609350.422 7  87747562.31046  21428849.984                    21428853.715
        47.800          41.200
 20  1  1  1 49  0.0000000  0  8G05G13G27G24G10G20G15G21
 130687680.438 6 101834576.68443  24869043.438                    24869049.258
        37.200          19.900
 121158183.742 6  94408892.92344  23055612.594                    23055617.039
        41.300          26.000
 132137683.644 6 102964487.48443  25144972.188                    25144978.023
        39.300          20.900
 108958186.317 8  84902531.82747  20734053.602                    20734061.250
        49.100          43.000
 124686900.817 6  97158690.82244  23727132.695                    23727140.566
        40.000          26.500
 110852559.475 7  86378668.33146  21094548.086                    21094551.984
        47.300          39.200
 109336352.058 8  85197168.43147  20806014.602                    20806019.535
        51.000          42.600
 112612681.367 7  87750157.84146  21429483.680                    21429487.512
        47.600          41.300
 20  1  1  1 49 30.0000000  0  8G05G13G27G24G10G20G15G21
 130779082.802 6 101905799.22743  24886437.125                    24886443.516
        37.100          19.300
 121249457.194 6  94480015.07444  23072980.781                    23072985.891
        41.600          25.500
 132149426.290 6 102973637.60843  25147206.359                    25147212.805
        38.200          20.100
 108899037.430 8  84856441.79047  20722798.023                    20722805.512
        48.000          43.200
 124598240.359 6  97089604.76444  23710262.438                    23710268.539
        40.000          28.100
 110786380.332 7  86327100.17346  21081954.813                    21081958.789
        46.800          39.200
 109391544.226 8  85240175.30247  20816517.516                    20816522.086
        50.600          43.000
 112616512.034 8  87753142.76546  21430212.836                    21430216.773
        48.000          41.500
 20  1  1  1 50  0.0000000  0  8G05G13G27G24G10G20G15G21
 130870585.997 5 101977100.31842  24903848.930                    24903855.250
        35.000          17.400
 121340812.792 6  94551201.23744  23090365.523                    23090369.855
        41.400          24.300
 132161675.727 6 102983182.60343  25149537.195                    25149543.938
        37.000          18.600
 108840426.389 8  84810770.84647  20711644.656                    20711652.109
        48.000          43.300
 124509601.554 6  97020535.59644  23693394.234                    23693401.996
        39.800          26.900
 110720445.792 7  86275722.60746  21069408.063                    21069411.863
        47.000          39.200
 109447002.059 8  85283389.18647  20827070.547                    20827075.777
        50.300          42.800
 112620840.746 8  87756515.78146  21431036.539                    21431040.262
        48.400          41.900
 20  1  1  1 50 30.0000000  0  8G05G13G27G24G10G20G15G21
 130962190.470 6 102048480.34543  24921281.273                    24921287.875
        36.500          19.000
 121432250.017 6  94622451.00844  23107765.414                    23107770.230
        41.100          25.600
 132174432.014 6 102993122.51943  25151964.664                    25151971.188
        37.900          20.100
 108782355.576 8  84765520.86447  20700594.078                    20700601.430
        48.500          43.600
 124420986.602 6  96951484.99144  23676531.633                    23676539.035
        39.900          27.300
 110654759.480 7  86224538.46846  21056908.164                    21056912.109
        47.200          39.400
 109502724.994 8  85326809.65247  20837674.531                    20837679.328
        50.200          42.500
 112625668.616 8  87760277.74946  21431955.211                    21431958.887
        48.800          41.400
 20  1  1  1 51  0.0000000  0  8G05G13G27G24G10G20G15G21
 131053896.695 6 102119939.62443  24938732.445                    24938739.105
        37.400          20.400
 121523767.659 6  94693763.40344  23125180.375                    23125185.418
        40.800          25.700
 132187695.036 6 103003457.30843  25154487.891                    25154495.445
        36.400          19.900
 108724827.697 8  84720693.94247  20689647.031                    20689654.520
        48.600          43.900
 124332397.618 6  96882454.62444  23659673.828                    23659680.660
        39.800          28.300
 110589323.842 7  86173549.65646  21044456.305                    21044460.590
        47.000          39.200
 109558712.581 8  85370436.33947  20848328.602                    20848332.996
        50.300          42.400
 112630996.788 8  87764429.56246  21432969.250                    21432973.098
        49.100          41.600
 20  1  1  1 51 30.0000000  0  8G05G13G27G24G10G20G15G21
 131145705.771 5 102191479.07443  24956203.086                    24956209.555
        34.900          19.000
 121615366.249 6  94765138.93444  23142610.984                    23142615.805
        40.600          24.600
 132201465.237 6 103014187.32643  25157108.375                    25157115.859
        37.100          19.000
 108667846.488 8  84676292.99447  20678803.703                    20678811.273
        48.700          43.200
 124243837.556 6  96813446.78344  23642821.359                    23642828.477
        40.500          27.600
 110524142.559 7  86122759.05246  21032052.766                    21032056.457
        47.200          39.000
 109614964.893 8  85414269.29547  20859033.297                    20859037.977
        50.000          42.500
 112636826.925 8  87768972.51646  21434078.734                    21434082.441
        48.900          40.900
 20  1  1  1 52  0.0000000  0  8G05G13G27G24G10G20G15G21
 131237612.797 5 102263094.81342  24973692.898                    24973698.305
        34.800          17.400
 121707039.898 6  94836572.90743  23160056.133                    23160060.910
        40.100          22.800
 132215737.324 5 103025308.42443  25159824.031                    25159831.449
        35.900          18.300
 108611409.350 8  84632316.00547  20668064.320                    20668071.777
        48.100          43.200
 124155302.844 6  96744458.70944  23625973.313                    23625981.379
        39.400          29.300
 110459212.963 7  86072164.56246  21019697.156                    21019700.734
        47.600          40.200
 109671476.059 8  85458303.94447  20869786.945                    20869791.383
        50.000          42.600
 112643154.551 7  87773903.12446  21435282.969                    21435286.484
        47.600          41.600
 20  1  1  1 52 30.0000000  0  8G05G13G27G24G10G20G15G21
 131329621.886 6 102334790.11142  24991201.953                    24991206.547
        37.000          17.400
 121798791.540 6  94908067.69043  23177515.758                    23177520.617
        40.200          22.800
 132230514.487 5 103036823.06342  25162636.008                    25162643.262
        35.400          17.800
 108555522.702 8  84588767.96247  20657429.195                    20657436.594
        48.200          43.500
 124066799.282 6  96675494.91444  23609132.414                    23609139.469
        40.500          28.100
 110394541.578 7  86021771.28246  21007390.961                    21007394.270
        46.700          39.000
 109728249.296 8  85502542.82147  20880590.484                    20880595.094
        50.200          42.500
 112649984.319 8  87779225.01246  21436582.359                    21436586.039
        49.200          41.000
 20  1  1  1 53  0.0000000  0  8G05G13G27G24G10G20G15G21
 131421729.184 6 102406561.96643  25008729.555                    25008734.797
        36.900          19.600
 121890617.019 6  94979619.97544  23194989.680                    23194995.043
        40.200          24.300
 132245792.778 5 103048728.19843  25165543.750                    25165550.664
        35.400          19.300
 108500185.602 8  84545648.14247  20646898.891                    20646906.086
        48.300          43.400
 123978325.285 6  96606554.14444  23592296.883                    23592303.926
        40.400          28.700
 110330127.545 7  85971578.53446  20995132.555                    20995136.723
        47.000          39.600
 109785280.099 8  85546982.40147  20891442.969                    20891447.855
        49.500          42.500
 112657313.256 8  87784935.86047  21437977.141                    21437980.547
        48.600          42.000
 20  1  1  1 53 30.0000000  0  8G05G13G27G24G10G20G15G21
 131513935.239 5 102478410.69942  25026274.648                    25026280.668
        34.200          17.800
 121982516.026 6  95051229.56243  23212477.344                    23212482.766
        39.500          22.800
 132261572.461 6 103061024.01343  25168547.008                    25168553.313
        37.300          18.600
 108445400.928 8  84502958.78747  20636473.523                    20636481.164
        48.700          43.300
 123889883.404 6  96537638.41044  23575466.703                    23575473.453
        41.300          28.400
 110265974.030 7  85921588.78146  20982924.859                    20982928.668
        47.600          39.100
 109842568.409 8  85591622.62746  20902344.688                    20902349.793
        49.800          41.800
 112665142.856 8  87791036.83546  21439466.984                    21439470.965
        48.900          40.800
 20  1  1  1 54  0.0000000  0  8G05G13G27G24G10G20G15G21
 131606240.738 5 102550336.94943  25043840.813                    25043847.023
        35.600          18.600
 122074488.303 6  95122896.26043  23229979.352                    23229984.301
        39.600          22.600
 132277853.260 6 103073710.33143  25171644.688                    25171652.410
        36.400          20.100
 108391171.530 8  84460702.10947  20626154.422                    20626161.840
        48.600          43.200
 123801475.793 6  96468749.37344  23558642.766                    23558650.270
        40.300          29.900
 110202083.684 7  85871804.10146  20970766.930                    20970770.777
        47.000          39.600
 109900113.772 8  85636463.16747  20913295.211                    20913299.840
        49.500          42.600
 112673473.925 8  87797528.56946  21441052.625                    21441055.973
        49.100          41.100
 20  1  1  1 54 30.0000000  0  8G05G13G27G24G10G20G15G21
 131698642.195 6 102622337.98242  25061425.063                    25061429.777
        37.900          17.400
 122166529.104 6  95194616.33643  23247493.383                    23247498.555
        39.700          22.200
 132294630.824 6 103086783.73943  25174838.047                    25174845.195
        36.400          18.600
 108337495.910 8  84418876.95047  20615940.000                    20615947.398
        48.800          42.300
 123713100.511 6  96399885.52944  23541826.250                    23541833.199
        41.400          29.600
 110138455.523 7  85822223.71946  20958658.750                    20958662.555
        47.300          38.400
 109957911.602 8  85681500.42747  20924293.484                    20924298.559
        50.200          42.100
 112682303.421 8  87804408.68946  21442732.633                    21442736.406
        48.500          40.700
 20  1  1  1 55  0.0000000  0  8G05G13G27G24G10G20G15G21
 131791140.831 6 102694414.80942  25079026.180                    25079032.000
        37.300          17.400
 122258638.704 6  95266390.02643  23265022.094                    23265026.770
        40.200          22.900
 132311905.758 5 103100244.66343  25178124.836                    25178131.660
        35.600          19.900
 108284377.825 8  84377486.23047  20605832.039                    20605839.469
        48.900          43.900
 123624760.611 6  96331049.24644  23525015.086                    23525021.992
        41.100          29.400
 110075093.568 7  85772850.77446  20946601.422                    20946605.758
        46.800          39.600
 110015962.095 8  85726734.56547  20935340.578                    20935345.191
        49.600          42.400
 112691633.447 8  87811678.83046  21444508.008                    21444511.855
        49.000          41.600
 20  1  1  1 55 30.0000000  0  8G05G13G27G24G10G20G15G21
 131883735.508 5 102766566.33542  25096646.844                    25096652.301
        35.300          17.400
 122350815.549 6  95338216.11343  23282562.586                    23282567.426
        39.900          22.800
 132329676.607 5 103114092.05143  25181506.547                    25181513.887
        35.500          18.600
 108231818.943 8  84336531.25547  20595830.406                    20595837.652
        48.900          43.800
 123536457.143 6  96262241.36044  23508211.523                    23508218.504
        41.400          29.200
 110011999.047 7  85723686.20346  20934594.453                    20934598.914
        46.700          40.000
 110074263.866 8  85772164.50647  20946434.891                    20946439.684
        50.700          42.400
 112701462.986 8  87819338.20646  21446378.883                    21446382.379
        49.100          41.900
 20  1  1  1 56  0.0000000  0  8G05G13G27G24G10G20G15G21
 131976422.522 5 102838789.85143  25114284.633                    25114290.160
        35.900          18.600
 122443055.199 6  95410091.15043  23300115.141                    23300120.164
        39.000          22.800
 132347939.094 6 103128322.54143  25184982.516                    25184989.188
        36.500          18.600
 108179817.597 8  84296010.73147  20585935.164                    20585942.230
        49.500          44.100
 123448188.378 6  96193460.51644  23491414.859                    23491421.078
        40.900          29.300
 109949171.219 7  85674729.45846  20922639.164                    20922643.000
        47.100          40.300
 110132812.662 8  85817786.92847  20957576.273                    20957581.297
        49.800          42.200
 112711789.505 8  87827384.83546  21448343.180                    21448347.480
        49.200          41.400
 20  1  1  1 56 30.0000000  0  8G05G13G27G24G10G20G15G21
 132069206.793 6 102911089.16043  25131940.719                    25131946.816
        37.700          19.000
 122535361.491 6  95482018.10944  23317680.719                    23317685.895
        38.900          25.000
 132366697.217 6 103142939.24943  25188552.148                    25188559.168
        36.700          19.600
 108128380.871 8  84255930.16547  20576146.969                    20576154.465
        48.900          43.900
 123359960.885 6  96124711.84444  23474624.695                    23474631.629
        41.000          29.100
 109886617.036 7  85625985.94446  20910735.734                    20910739.645
        46.800          40.800
 110191611.899 8  85863604.50247  20968765.484                    20968770.246
        50.500          42.200
 112722617.959 8  87835822.58046  21450404.203                    21450408.156
        48.000          41.000
 20  1  1  1 57  0.0000000  0  8G05G13G27G24G10G20G15G21
 132162082.735 6 102983459.94243  25149614.398                    25149620.355
        37.500          18.600
 122627728.197 6  95553992.13043  23335257.766                    23335262.391
        39.400          22.300
 132385944.628 5 103157937.16643  25192213.688                    25192222.324
        35.000          18.300
 108077505.042 8  84216286.66447  20566465.648                    20566472.980
        49.400          44.300
 123271770.521 6  96055992.08745  23457842.523                    23457849.961
        41.600          30.200
 109824333.475 7  85577453.30046  20898883.242                    20898887.586
        47.300          40.500
 110250655.229 8  85909612.28047  20980001.008                    20980005.773
        50.200          42.300
 112733943.029 7  87844647.30146  21452559.188                    21452563.066
        47.800          41.400
 20  1  1  1 57 30.0000000  0  8G05G13G27G24G10G20G15G21
 132255052.553 6 103055903.81742  25167305.938                    25167312.281
        36.100          17.800
 122720156.424 6  95626014.11643  23352845.664                    23352850.961
        38.800          21.700
 132405682.977 5 103173317.70143  25195969.570                    25195977.180
        34.900          18.300
 108027195.225 8  84177084.21247  20556892.141                    20556899.289
        49.500          44.100
 123183621.960 6  95987304.90744  23441067.789                    23441076.547
        41.100          28.900
 109762325.443 7  85529135.35046  20887083.758                    20887087.852
        47.200          40.700
 110309944.193 8  85955811.46746  20991283.430                    20991288.230
        49.800          41.800
 112745767.456 8  87853861.13246  21454809.250                    21454813.434
        48.200          41.500
 20  1  1  1 58  0.0000000  0  9G05G13G27G32G24G10G20G15G21
 132348116.116 5 103128420.77742  25185015.742                    25185021.707
        35.700          16.900
 122812645.346 6  95698083.38243  23370445.891                    23370450.902
        39.300          22.900
 132425911.134 5 103189079.88843  25199819.563                    25199826.813
        35.700          19.300
 132545772.64715 103282449.91552  25222622.219                    25222630.027
        34.600          17.800
 107977453.399 8  84138324.34747  20547426.383                    20547433.398
        50.000          44.600
 123095516.668 6  95918651.43444  23424302.672                    23424310.105
        41.100          29.000
 109700595.106 7  85481033.79446  20875336.828                    20875340.887
        46.900          40.700
 110369477.786 8  86002201.27047  21002612.305                    21002617.008
        49.800          42.000
 112758091.591 8  87863464.34147  21457154.656                    21457158.926
        48.500          42.300
 20  1  1  1 58 30.0000000  0  9G05G13G27G32G24G10G20G15G21
 132441270.439 6 103201008.40043  25202741.156                    25202748.691
        36.900          19.000
 122905191.326 6  95770197.10243  23388057.117                    23388061.813
        38.700          21.800
 132446625.537 6 103205220.97843  25203761.672                    25203769.020
        36.100          19.000
 132458352.38315 103214330.19452  25205986.633                    25205994.602
        34.200          17.400
 107928278.282 8  84100006.07747  20538068.828                    20538076.031
        49.900          44.100
 123007453.618 6  95850030.89244  23407545.141                    23407552.438
        41.600          28.600
 109639142.386 7  85433148.55846  20863642.367                    20863646.832
        46.900          40.600
 110429252.071 8  86048778.62546  21013986.922                    21013991.543
        50.500          41.600
 112770913.048 8  87873455.08246  21459594.336                    21459598.398
        48.800          41.600
 20  1  1  1 59  0.0000000  0  9G05G13G27G32G24G10G20G15G21
 132534517.759 6 103273668.50643  25220487.375                    25220493.227
        38.300          20.100
 122997795.852 6  95842356.47243  23405679.430                    23405684.211
        38.900          22.300
 132467827.575 6 103221741.99343  25207795.625                    25207804.000
        36.300          19.900
 132371024.368 5 103146282.41742  25189367.883                    25189376.504
        34.500          16.300
 107879674.742 8  84062133.19147  20528819.789                    20528826.992
        49.100          44.100
 122919436.947 6  95781446.48045  23390796.031                    23390803.305
        41.800          31.000
 109577971.951 7  85385483.28746  20852002.602                    20852006.371
        47.800          40.900
 110489268.691 8  86095544.81047  21025407.695                    21025412.480
        50.100          42.000
 112784234.277 8  87883835.24546  21462129.141                    21462133.406
        48.200          41.500
 20  1  1  1 59 30.0000000  0  9G05G13G27G32G24G10G20G15G21
 132627855.165 6 103346398.86143  25238248.641                    25238254.625
        37.400          19.000
 123090455.621 6  95914558.85843  23423311.430                    23423316.297
        38.400          22.000
 132489514.040 5 103238640.53342  25211922.672                    25211930.141
        35.100          17.800
 132283787.000 5 103078305.22142  25172768.078                    25172775.766
        34.300          16.300
 107831642.133 8  84024705.17747  20519679.352                    20519686.805
        49.300          43.900
 122831466.111 7  95712897.79145  23374055.938                    23374062.836
        42.100          31.000
 109517083.678 7  85338037.87546  20840415.914                    20840419.645
        47.900          40.900
 110549524.265 8  86142497.18947  21036874.117                    21036879.051
        50.200          42.500
 112798052.973 7  87894603.05046  21464759.070                    21464763.059
        47.800          41.000
 20  1  1  2  0  0.0000000  0  9G05G13G27G32G24G10G20G15G21
 132721282.405 6 103419199.15242  25256026.727                    25256032.988
        36.000          17.400
 123183169.220 6  95986803.18343  23440954.086                    23440958.828
        38.400          21.800
 132511683.369 6 103255915.31443  25216141.398                    25216149.324
        36.100          19.000
 132196640.786 5 103010399.10543  25156185.250                    25156192.551
        35.400          19.300
 107784182.003 8  83987723.25747  20510647.898                    20510655.168
        48.400          44.400
 122743542.362 7  95644385.80445  23357324.609                    23357331.762
        42.300          30.100
 109456479.622 7  85290813.94246  20828883.266                    20828887.008
        47.700          40.700
 110610017.408 8  86189634.68346  21048385.406                    21048389.914
        50.500          41.500
 112812369.091 8  87905758.45446  21467483.453                    21467487.238
        48.300          41.100
 20  1  1  2  0 30.0000000  0  9G05G13G27G32G24G10G20G15G21
 132814797.088 6 103492067.60842  25273821.633                    25273827.840
        36.000          16.900
 123275933.604 6  96059087.11343  23458607.633                    23458611.922
        38.300          22.200
 132534332.428 6 103273563.91843  25220451.633                    25220458.820
        37.200          20.100
 132109584.430 5 102942563.00742  25139618.766                    25139626.715
        34.100          16.300
 107737294.780 8  83951187.76147  20501725.570                    20501733.262
        49.900          44.900
 122655665.294 7  95575910.18045  23340602.422                    23340609.184
        42.600          30.800
 109396160.081 7  85243811.70946  20817404.930                    20817408.793
        47.800          41.100
 110670744.849 8  86236954.75247  21059941.469                    21059946.219
        50.500          42.200
 112827180.613 8  87917299.89447  21470301.922                    21470305.816
        48.600          42.000
 20  1  1  2  1  0.0000000  0  9G05G13G27G32G24G10G20G15G21
 132908400.080 6 103565004.90243  25291634.078                    25291639.754
        36.900          18.300
 123368748.419 6  96131410.31443  23476268.719                    23476273.828
        37.800          21.300
 132557460.846 6 103291586.06443  25224852.727                    25224860.262
        36.800          19.000
 132022619.711 5 102874798.34242  25123068.680                    25123076.988
        34.000          17.400
 107690981.985 8  83915099.86647  20492912.711                    20492920.438
        49.100          44.300
 122567837.339 7  95507472.82944  23323888.992                    23323895.793
        42.400          29.700
 109336128.085 7  85197033.53046  20805980.891                    20805984.930
        47.600          41.100
 110731706.198 8  86284457.08546  21071542.180                    21071547.066
        49.900          41.700
 112842488.407 8  87929228.03446  21473214.883                    21473219.016
        48.600          40.900
 20  1  1  2  1 30.0000000  0  9G05G13G27G32G24G10G20G15G21
 133002093.121 6 103638012.35542  25309462.734                    25309469.559
        36.700          17.800
 123461615.270 6  96203774.06343  23493941.258                    23493946.656
        38.400          21.500
 132581069.833 5 103309982.63642  25229345.695                    25229352.855
        35.900          17.400
 131935749.547 5 102807107.36742  25106538.891                    25106546.746
        32.200          16.900
 107645248.450 8  83879463.35247  20484209.852                    20484217.453
        49.100          44.700
 122480062.604 7  95439076.95545  23307186.313                    23307193.203
        42.800          30.900
 109276388.336 7  85150483.07346  20794612.977                    20794617.293
        47.800          41.600
 110792903.236 8  86332143.06946  21083187.391                    21083192.367
        50.800          41.900
 112858294.636 8  87941544.56546  21476222.773                    21476226.629
        49.200          41.000
 20  1  1  2  2  0.0000000  0  9G05G13G27G32G24G10G20G15G21
 133095872.672 6 103711087.16843  25327309.594                    25327316.063
        37.400          19.300
 123554529.970 6  96276175.08443  23511622.797                    23511626.996
        37.900          21.300
 132605155.199 6 103328750.44343  25233929.703                    25233935.516
        37.200          18.300
 131848971.844 5 102739488.37942  25090025.578                    25090033.270
        34.000          17.400
 107600092.754 8  83844277.09247  20475616.773                    20475624.508
        48.800          44.300
 122392339.630 7  95370721.40745  23290492.125                    23290499.465
        42.500          30.400
 109216939.907 7  85104159.62946  20783300.273                    20783304.375
        47.300          41.100
 110854331.689 8  86380009.37146  21094876.844                    21094881.461
        50.200          41.400
 112874596.461 8  87954247.27646  21479324.805                    21479328.813
        48.300          41.400
 20  1  1  2  2 30.0000000  0  9G05G13G27G32G24G10G20G15G21
 133189738.135 6 103784228.97143  25345171.648                    25345178.191
        36.600          19.000
 123647491.503 6  96348612.59143  23529312.844                    23529317.539
        37.700          21.300
 132629715.585 6 103347888.40543  25238602.797                    25238608.602
        36.000          18.600
 131762287.35415 102671942.08352  25073529.836                    25073537.430
        34.100          16.900
 107555516.425 8  83809542.29147  20467134.406                    20467141.973
        49.100          44.700
 122304670.183 7  95302407.57345  23273810.344                    23273816.734
        42.300          30.700
 109157785.167 7  85058065.02646  20772043.375                    20772047.566
        47.300          41.300
 110915990.286 8  86428055.01546  21106610.484                    21106614.941
        50.700          41.600
 112891393.560 8  87967335.91146  21482521.141                    21482525.109
        48.900          41.100
 20  1  1  2  3  0.0000000  0  8G13G27G32G24G10G20G15G21
 123740500.112 6  96421086.84343  23547010.813                    23547015.984
        37.200          21.300
 132654751.078 5 103367396.55343  25243366.609                    25243373.895
        35.000          18.300
 131675697.95615 102604469.84452  25057052.867                    25057060.523
        33.300          16.300
 107511522.621 8  83775261.40847  20458762.609                    20458770.152
        49.900          44.100
 122217056.994 7  95234137.57645  23257137.602                    23257144.898
        42.100          30.800
 109098927.676 7  85012202.05446  20760843.156                    20760847.313
        47.300          41.300
 110977879.128 8  86476280.06646  21118387.414                    21118392.047
        50.400          41.100
 112908687.242 8  87980811.49746  21485812.133                    21485816.137
        48.400          41.000
 20  1  1  2  3 30.0000000  0  8G13G27G32G24G10G20G15G21
 123833553.259 6  96493595.73543  23564719.078                    23564723.344
        37.700          21.500
 132680258.735 5 103387272.59843  25248220.313                    25248227.809
        35.300          19.300
 131589202.89715 102537071.13952  25040593.102                    25040600.719
        33.400          17.800
 107468110.895 8  83741434.08947  20450501.586                    20450509.297
        49.200          45.000
 122129500.288 7  95165911.60345  23240476.047                    23240483.582
        42.200          30.900
 109040367.778 7  84966570.96146  20749699.742                    20749703.660
        47.600          41.300
 111039995.916 8  86524682.73446  21130207.758                    21130212.480
        50.300          41.800
 112926476.007 8  87994672.86746  21489197.063                    21489201.297
        48.100          41.600
 20  1  1  2  4  0.0000000  0  8G13G27G32G24G10G20G15G21
 123926650.077 6  96566138.71543  23582434.727                    23582439.473
        37.800          20.900
 132706237.672 6 103407515.91343  25253165.102                    25253170.891
        36.100          19.300
 131502803.17415 102469746.70452  25024151.359                    25024159.895
        34.100          17.400
 107425283.765 8  83708062.30147  20442351.805                    20442358.879
        49.100          43.400
 122042001.975 7  95097731.11844  23223825.461                    23223833.293
        42.900          29.800
 108982108.251 7  84921173.93646  20738613.164                    20738617.516
        47.800          40.200
 111102339.660 8  86573262.24946  21142071.320                    21142076.008
        50.000          40.600
 112944759.826 8  88008919.98746  21492676.383                    21492680.457
        48.700          40.200
 20  1  1  2  4 30.0000000  0  8G13G27G32G24G10G20G15G21
 124019785.564 6  96638711.77343  23600158.336                    23600163.527
        37.700          21.700
 132732682.263 5 103428122.03642  25258196.266                    25258204.008
        34.800          17.400
 131416495.44415 102402493.96853  25007727.508                    25007736.262
        34.100          18.600
 107383037.990 8  83675143.51247  20434312.875                    20434320.305
        49.500          44.900
 121954559.636 7  95029594.23745  23207185.625                    23207193.164
        42.500          31.000
 108924147.232 7  84876009.50146  20727583.328                    20727587.598
        47.900          41.300
 111164905.479 8  86622014.81647  21153977.516                    21153982.273
        50.000          42.000
 112963534.378 8  88023549.50346  21496249.164                    21496253.188
        49.100          41.300
 20  1  1  2  5  0.0000000  0  8G13G27G32G24G10G20G15G21
 124112961.160 6  96711316.10743  23617888.781                    23617893.184
        37.900          21.100
 132759593.470 5 103449091.79842  25263317.461                    25263324.531
        34.900          17.800
 131330282.722 6 102335315.25343  24991322.656                    24991330.047
        36.200          19.900
 107341377.783 8  83642681.01147  20426385.250                    20426392.629
        48.900          44.300
 121867177.207 7  94961504.05645  23190557.469                    23190564.828
        42.200          30.700
 108866489.210 8  84831081.16646  20716611.531                    20716615.645
        48.600          41.300
 111227694.036 8  86670940.94446  21165925.258                    21165930.293
        50.100          41.000
 112982801.992 8  88038563.21646  21499915.891                    21499919.609
        49.000          40.600
 20  1  1  2  5 30.0000000  0  8G13G27G32G24G10G20G15G21
 124206177.467 6  96783952.15643  23635626.484                    23635630.938
        38.800          20.100
 132786971.694 5 103470425.49343  25268527.688                    25268534.008
        35.200          18.600
 131244167.76815                  24974934.563
        35.200
 107300306.602 8  83610677.49747  20418569.781                    20418577.258
        48.900          44.600
 121779858.004 7  94893463.12845  23173941.594                    23173948.570
        42.700          31.300
 108809138.151 8  84786392.03546  20705697.844                    20705702.188
        48.500          41.400
 111290706.205 8  86720041.31746  21177916.445                    21177920.910
        50.500          41.600
 113002563.695 8  88053961.93746  21503676.328                    21503680.500
        48.400          41.700
 20  1  1  2  6  0.0000000  0  8G13G27G32G24G10G20G15G21
 124299430.910 6  96856617.14343  23653371.852                    23653376.809
        39.000          20.600
 132814812.939 5 103492119.94842  25273824.758                    25273832.570
        33.700          16.900
 131158147.37115 102201183.87553  24958566.609                    24958573.949
        35.200          18.300
 107259823.022 8  83579131.85247  20410865.898                    20410873.207
        50.200          44.900
 121692601.185 7  94825470.80545  23157336.781                    23157344.012
        42.700          30.500
 108752093.916 8  84741941.97846  20694842.609                    20694846.648
        48.800          41.500
 111353938.302 8  86769313.06546  21189949.094                    21189953.934
        51.300          41.100
 113022817.004 8  88069743.73146  21507530.258                    21507534.578
        49.500          40.900
 20  1  1  2  6 30.0000000  0  8G13G27G32G24G10G20G15G21
 124392720.535 6  96929310.33943  23671124.930                    23671129.348
        38.800          19.900
 132843116.088 5 103514174.28943  25279211.258                    25279218.480
        35.200          18.300
 131072224.35415                  24942215.391
        35.000
 107219928.839 8  83548045.47747  20403274.266                    20403281.605
        49.600          44.600
 121605408.800 7  94757528.70445  23140744.742                    23140752.059
        42.500          31.100
 108695358.579 8  84697732.62746  20684046.336                    20684050.777
        48.200          41.400
 111417389.391 8  86818755.45146  21202023.383                    21202028.270
        50.300          41.200
 113043561.930 8  88085908.59646  21511478.125                    21511481.930
        48.300          41.300
 20  1  1  2  7  0.0000000  0  8G13G27G32G24G10G20G15G21
 124486046.219 6  97002031.62643  23688883.648                    23688888.625
        38.300          19.900
 132871880.210 5 103536587.92943  25284685.922                    25284692.570
        35.600          18.600
 130986398.16915 102067353.35152  24925881.953                    24925890.668
        34.000          16.300
 107180626.249 8  83517420.08047  20395795.391                    20395802.688
        50.200          44.900
 121518283.114 7  94689638.57345  23124165.039                    23124172.715
        42.600          31.800
 108638935.080 8  84653766.25846  20673309.609                    20673313.547
        48.500          41.400
 111481058.982 8  86868368.10746  21214139.484                    21214144.137
        50.600          41.600
 113064798.667 8  88102456.69146  21515519.164                    21515523.109
        48.900          41.400
 20  1  1  2  7 30.0000000  0  8G13G27G32G24G10G20G15G21
 124579405.530 6  97074779.10743  23706650.344                    23706654.695
        37.700          20.600
 132901102.448 5 103559358.44443  25290245.430                    25290253.727
        34.900          20.100
 130900669.512 5 102000551.85242  24909569.320                    24909576.973
        35.400          17.800
 107141915.041 8  83487255.49947  20388428.695                    20388435.895
        50.200          44.800
 121431224.385 7  94621800.61945  23107598.578                    23107605.324
        43.200          32.200
 108582824.365 8  84610043.61946  20662631.938                    20662635.840
        48.500          41.100
 111544944.874 8  86918149.29746  21226296.461                    21226301.344
        50.400          40.900
 113086525.476 8  88119386.67346  21519653.852                    21519657.789
        49.500          41.000
 20  1  1  2  8  0.0000000  0  8G13G27G32G24G10G20G15G21
 124672794.965 6  97147550.09343  23724421.727                    23724426.219
        37.300          20.100
 132930778.822 6 103582482.88643  25295893.133                    25295901.613
        36.200          18.600
 130815035.98415 101933824.38052  24893274.156                    24893281.469
        35.200          16.900
 107103794.181 8  83457550.93547  20381174.656                    20381182.152
        50.100          45.300
 121344231.748 7  94554014.16045  23091044.313                    23091051.230
        42.400          31.200
 108527026.126 8  84566564.47546  20652013.977                    20652018.043
        48.800          41.700
 111609043.260 8  86968096.07646  21238493.688                    21238498.789
        50.800          41.300
 113108739.551 8  88136696.33146  21523880.836                    21523884.797
        48.200          41.300
 20  1  1  2  8 30.0000000  0  8G13G27G32G24G10G20G15G21
 124766221.041 6  97220349.56243  23742199.867                    23742204.613
        37.300          20.100
 132960915.178 5 103605965.74643  25301627.266                    25301635.172
        34.900          18.600
 130729505.71515 101867177.47753  24876998.734                    24877006.125
        34.500          18.300
 107066272.447 8  83428313.21947  20374034.438                    20374041.758
        50.300          44.900
 121257314.345 7  94486286.33945  23074504.328                    23074511.492
        42.800          30.800
 108471549.920 8  84523336.26846  20641457.055                    20641461.270
        48.700          41.300
 111673360.452 8  87018213.35646  21250733.094                    21250737.852
        50.300          41.200
 113131447.989 8  88154391.20146  21528202.172                    21528205.965
        49.100          40.500
 20  1  1  2  9  0.0000000  0  8G13G27G32G24G10G20G15G21
 124859674.027 6  97293170.06143  23759983.336                    23759988.160
        37.600          20.100
 132991501.237 5 103629799.01643  25307448.281                    25307455.359
        35.300          19.600
 130644070.55716 101800604.62553  24860740.586                    24860747.762
        36.300          19.000
 107029342.574 8  83399536.69747  20367006.680                    20367014.195
        49.900          45.200
 121170465.206 7  94418611.70245  23057977.477                    23057984.113
        42.700          31.000
 108416389.360 8  84480354.01446  20630960.523                    20630964.531
        49.000          41.500
 111737886.834 8  87068493.63346  21263012.070                    21263016.988
        50.600          41.300
 113154641.687 8  88172464.20546  21532616.016                    21532619.613
        48.000          40.500
 20  1  1  2  9 30.0000000  0  8G13G27G32G24G10G20G15G21
 124953157.355 6  97366014.20143  23777772.250                    23777776.922
        37.300          20.600
 133022540.021 5 103653985.05442  25313354.992                    25313361.406
        34.600          17.400
 130558735.74815 101734109.99753  24844501.781                    24844509.164
        34.800          18.600
 106993010.754 8  83371226.19047  20360093.266                    20360100.551
        50.200          45.000
 121083690.523 7  94350995.08345  23041465.375                    23041471.699
        43.200          31.800
 108361550.830 8  84437622.69346  20620525.234                    20620529.242
        48.800          41.600
 111802625.717 8  87118939.49746  21275331.383                    21275336.395
        50.600          40.500
 113178324.739 8  88190918.52446  21537122.656                    21537127.031
        48.400          40.600
 20  1  1  2 10  0.0000000  0  8G13G27G32G24G10G20G15G21
 125046669.225 6  97438880.58243  23795567.563                    23795572.078
        37.400          21.300
 133054028.556 5 103678521.57043  25319346.500                    25319354.492
        35.700          18.600
 130473500.601 5 101667692.98443  24828282.133                    24828289.602
        35.300          18.300
 106957275.591 8  83343380.61147  20353292.969                    20353300.191
        49.500          45.300
 120996990.601 7  94283436.72445  23024966.203                    23024973.195
        43.100          31.900
 108307035.439 8  84395143.16147  20610151.359                    20610155.020
        48.100          42.000
 111867574.419 8  87169548.85246  21287690.805                    21287695.609
        49.700          40.300
 113202495.288 8  88209752.70146  21541722.289                    21541726.023
        49.400          40.300
 20  1  1  2 10 30.0000000  0  8G13G27G32G24G10G20G15G21
 125140206.405 6  97511766.68943  23813367.008                    23813371.254
        36.900          20.600
 133085963.529 5 103703405.91443  25325424.430                    25325431.391
        35.800          19.600
 130388364.00815 101601352.80053  24812081.344                    24812088.199
        35.800          19.600
 106922137.250 8  83316000.08547  20346606.305                    20346614.004
        49.300          44.900
 120910365.669 7  94215936.80445  23008482.586                    23008488.996
        43.300          32.200
 108252843.859 8  84352915.95946  20599838.852                    20599842.898
        48.500          41.600
 111932730.882 8  87220320.10846  21300089.797                    21300094.453
        49.900          40.900
 113227151.415 8  88228965.26546  21546413.672                    21546417.879
        48.300          40.500
 20  1  1  2 11  0.0000000  0  8G13G27G32G24G10G20G15G21
 125233768.612 6  97584672.26043  23831170.719                    23831175.652
        36.700          19.900
 133118343.725 5 103728637.21143  25331585.844                    25331592.750
        35.600          18.600
 130303326.86815 101535090.13153  24795900.461                    24795906.211
        35.900          19.000
 106887597.852 8  83289086.26747  20340033.727                    20340041.234
        49.700          45.100
 120823817.633 7  94148496.79545  22992012.688                    22992019.602
        43.000          32.400
 108198978.291 8  84310942.79747  20589588.430                    20589592.430
        48.900          42.100
 111998093.866 8  87271252.28146  21312528.055                    21312532.887
        49.800          40.600
 113252292.772 8  88248555.91746  21551198.109                    21551202.234
        48.200          41.100
 20  1  1  2 11 30.0000000  0  8G13G27G32G24G10G20G15G21
 125327355.030 6  97657596.74143  23848980.828                    23848984.539
        37.100          19.900
 133151167.731 5 103754214.36043  25337831.273                    25337838.945
        35.300          19.600
 130218390.230 5 101468905.73943  24779736.305                    24779743.625
        35.900          18.300
 106853658.375 8  83262639.91347  20333574.898                    20333582.715
        51.400          47.400
 120737348.626 7  94081118.36945  22975557.695                    22975565.324
        42.900          32.600
 108145441.496 8  84269225.81546  20579401.133                    20579405.109
        48.400          41.700
 112063662.500 8  87322344.70746  21325005.391                    21325010.176
        49.700          40.300
 113277919.125 7  88268524.48746  21556074.797                    21556078.699
        47.800          40.600
 20  1  1  2 12  0.0000000  0  8G13G27G32G24G10G20G15G21
 125420963.913 6  97730538.70743  23866792.969                    23866797.910
        36.400          20.400
 133184432.833 5 103780135.18042  25344162.211                    25344169.824
        35.400          17.800
 130133553.54515 101402799.20653  24763591.898                    24763599.234
        35.400          20.100
 106820319.003 8  83236661.18047  20327230.781                    20327238.449
        51.300          47.900
 120650959.295 7  94013802.02845  22959118.625                    22959125.910
        43.100          31.900
 108092234.498 8  84227765.82547  20569276.063                    20569280.168
        48.800          42.200
 112129434.980 8  87373595.97746  21337521.359                    21337526.074
        50.100          40.100
 113304029.040 7  88288869.86646  21561043.352                    21561047.352
        47.800          41.100
 20  1  1  2 12 30.0000000  0  8G13G27G32G24G10G20G15G21
 125514594.801 6  97803497.81143  23884611.211                    23884615.520
        37.300          20.400
 133218138.152 5 103806399.01142  25350575.367                    25350582.867
        35.200          17.400
 130048818.216 5 101336771.72343  24747467.594                    24747475.543
        35.400          19.300
 106787581.503 8  83211151.43847  20321001.047                    20321008.520
        51.400          47.200
 120564652.114 7  93946549.69745  22942695.289                    22942702.637
        42.900          31.600
 108039360.309 8  84186565.16247  20559214.000                    20559218.250
        48.000          42.200
 112195410.708 8  87425005.62546  21350075.836                    21350080.941
        49.400          39.600
 113330622.616 7  88309592.12246  21566104.117                    21566107.719
        47.700          40.000
 20  1  1  2 13  0.0000000  0  8G13G27G32G24G10G20G15G21
 125608247.838 6  97876474.18243  23902432.578                    23902437.059
        37.200          20.100
 133252282.656 5 103833005.13442  25357073.281                    25357081.105
        34.400          17.800
 129964185.57715 101270824.24453  24731362.227                    24731370.590
        35.200          20.100
 106755447.868 8  83186112.23648  20314886.477                    20314893.730
        51.600          48.000
 120478429.554 7  93879363.30245  22926287.320                    22926294.301
        43.000          33.100
 107986821.593 7  84145625.91447  20549216.430                    20549220.754
        47.800          42.700
 112261589.603 8  87476573.57246  21362669.602                    21362674.449
        49.200          40.100
 113357699.834 7  88330691.23246  21571256.766                    21571260.418
        47.800          41.100
 20  1  1  2 13 30.0000000  0  7G13G32G24G10G20G15G21
 125701919.283 6  97949464.90843  23920257.461                    23920262.246
        37.000          20.400
 129879653.612 5 101204955.16843  24715277.469                    24715284.461
        35.700          18.300
 106723916.429 8  83161542.28847  20308886.031                    20308893.320
        52.100          47.200
 120392290.887 7  93812242.26445  22909895.305                    22909903.117
        42.600          32.400
 107934618.090 8  84104947.86346  20539282.570                    20539286.555
        48.300          41.800
 112327967.974 8  87528296.96446  21375300.914                    21375305.832
        49.100          39.600
 113385257.960 7  88352165.08546  21576500.711                    21576504.480
        47.900          39.900
 20  1  1  2 14  0.0000000  0  7G13G32G24G10G20G15G21
 125795609.193 6  98022470.01343  23938085.711                    23938091.715
        37.600          19.300
 129795223.794 5 101139165.70143  24699210.047                    24699218.141
        34.900          18.300
 106692989.223 8  83137443.16348  20303001.047                    20303008.469
        51.500          48.000
 120306238.712 7  93745188.63945  22893520.836                    22893527.828
        43.100          34.000
 107882752.386 8  84064533.03247  20529413.023                    20529416.895
        48.100          42.400
 112394545.609 8  87580175.62246  21387970.102                    21387975.273
        50.000          40.200
 113413297.098 7  88374013.75046  21581836.148                    21581840.012
        47.700          40.500
 20  1  1  2 14 30.0000000  0  7G13G32G24G10G20G15G21
 125889316.718 6  98095488.83143  23955917.758                    23955923.395
        37.000          18.600
 129710896.647 5 101073456.21042  24683163.148                    24683171.133
        34.900          17.400
 106662667.359 8  83113815.73847  20297230.938                    20297238.215
        52.700          46.600
 120220274.770 7  93678203.75945  22877162.414                    22877169.484
        43.400          31.500
 107831227.737 7  84024383.95946  20519608.148                    20519612.043
        47.800          41.300
 112461321.425 8  87632208.71746  21400677.141                    21400682.078
        49.200          38.200
 113441816.559 7  88396236.69246  21587263.328                    21587267.379
        47.600          38.900
 20  1  1  2 15  0.0000000  0  7G13G32G24G10G20G15G21
 125983040.110 6  98168520.03043  23973752.469                    23973757.613
        36.800          18.600
 129626672.094 5 101007826.69443  24667136.617                    24667143.969
        35.200          19.300
 106632950.399 8  83090659.66248  20291576.000                    20291582.984
        51.800          48.200
 120134400.137 7  93611288.47245  22860820.984                    22860827.996
        43.600          33.200
 107780045.016 8  83984501.32247  20509867.945                    20509871.953
        48.300          42.300
 112528293.644 8  87684394.85446  21413421.625                    21413426.594
        49.300          40.200
 113470814.875 7  88418832.76946  21592781.625                    21592786.051
        47.900          40.200
 20  1  1  2 15 30.0000000  0  7G13G32G24G10G20G15G21
 126076775.849 6  98241560.82243  23991590.523                    23991594.578
        36.500          19.600
 129542548.034 5 100942275.50043  24651127.039                    24651135.563
        34.600          18.300
 106603837.370 8  83067974.19447  20286036.141                    20286043.121
        51.700          47.900
 120048613.995 7  93544442.14345  22844496.375                    22844503.410
        43.700          33.100
 107729203.625 7  83944884.66247  20500193.633                    20500197.535
        47.800          42.400
 112595458.531 8  87736731.12246  21426202.594                    21426207.668
        49.300          39.400
 113500288.784 7  88441799.43846  21598390.438                    21598394.129
        47.500          40.400
 20  1  1  2 16  0.0000000  0  7G13G32G24G10G20G15G21
 126170526.611 6  98314613.30543  24009430.461                    24009435.145
        36.800          19.000
 129458528.50915 100876805.70353  24635139.289                    24635146.816
        34.300          18.600
 106575332.623 8  83045762.70648  20280611.680                    20280619.039
        51.700          48.000
 119962921.549 7  93477668.83345  22828189.578                    22828196.691
        43.800          33.600
 107678709.379 8  83905538.50047  20490584.453                    20490588.391
        48.300          42.700
 112662818.570 8  87789219.46246  21439020.930                    21439025.891
        49.600          39.800
 113530241.148 7  88465138.92846  21604090.148                    21604094.277
        47.900          40.200
 20  1  1  2 16 30.0000000  0  7G13G32G24G10G20G15G21
 126264287.647 6  98387673.80943  24027272.516                    24027277.648
        37.500          18.300
 129374610.015 5 100811414.67842  24619170.305                    24619177.648
        35.000          17.800
 106547432.995 8  83024022.73548  20275302.461                    20275309.801
        51.900          48.200
 119877320.610 7  93410966.81845  22811900.602                    22811906.918
        44.100          34.100
 107628560.226 7  83866461.23647  20481041.359                    20481045.637
        47.700          43.200
 112730368.746 8  87841855.95046  21451875.430                    21451880.270
        49.100          39.400
 113560667.298 7  88488847.60246  21609880.016                    21609884.164
        47.500          39.900
 20  1  1  2 17  0.0000000  0  7G13G32G24G10G20G15G21
 126358062.119 6  98460744.77942  24045117.258                    24045122.660
        37.200          17.800
 129290797.406 5 100746106.11643  24603221.625                    24603229.023
        35.000          19.300
 106520143.205 8  83002757.96348  20270109.797                    20270116.590
        51.800          48.400
 119791817.070 7  93344340.69545  22795629.781                    22795636.031
        44.100          33.600
 107578762.489 7  83827657.80547  20471565.336                    20471569.609
        47.800          42.400
 112798112.100 8  87894642.97446  21464766.219                    21464771.152
        48.600          39.200
 113591570.444 7  88512927.96446  21615760.898                    21615764.699
        47.500          39.800
 20  1  1  2 17 30.0000000  0  7G13G32G24G10G20G15G21
 126451848.817 6  98533825.29843  24062964.156                    24062969.832
        37.400          18.600
 129207090.758 5 100680880.10742  24587292.125                    24587300.012
        34.800          17.800
 106493463.691 8  82981968.73148  20265032.758                    20265039.699
        52.200          48.200
 119706412.581 7  93277791.75945  22779377.438                    22779384.016
        44.000          33.400
 107529318.169 8  83789129.76947  20462156.406                    20462160.445
        48.100          42.900
 112866047.581 8  87947579.70446  21477694.250                    21477699.055
        49.100          39.400
 113622949.753 7  88537379.35546  21621732.008                    21621736.152
        47.600          39.500
 20  1  1  2 18  0.0000000  0  7G13G32G24G10G20G15G21
 126545642.03216  98606910.86952  24080812.359                    24080817.414
        37.100          17.400
 129123485.813 5 100615733.43542  24571382.297                    24571390.316
        34.600          17.800
 106467390.634 8  82961652.06748  20260071.078                    20260078.566
        52.000          48.200
 119621104.044 7  93211317.58745  22763143.828                    22763150.648
        43.800          32.900
 107480224.542 7  83750874.99847  20452814.625                    20452818.254
        47.600          43.000
 112934169.008 8  88000661.31946  21490657.258                    21490662.230
        48.900          39.200
 113654799.486 7  88562197.32246  21627792.898                    21627796.789
        47.300          40.000
 20  1  1  2 18 30.0000000  0  7G13G32G24G10G20G15G21
 126639445.103 6  98680004.14142  24098662.961                    24098667.352
        37.500          17.400
 129039987.352 5 100550669.71242  24555493.836                    24555500.805
        35.600          17.400
 106441929.043 8  82941811.87047  20255225.656                    20255233.410
        51.300          47.800
 119535897.493 7  93144922.89045  22746929.438                    22746936.313
        43.900          33.200
 107431488.100 7  83712898.55447  20443540.125                    20443544.281
        47.800          42.400
 113002479.705 8  88053890.42646  21503656.438                    21503661.172
        48.200          38.600
 113687123.071 7  88587384.51346  21633943.820                    21633947.863
        47.200          39.900
 20  1  1  2 19  0.0000000  0  7G13G32G24G10G20G15G21
 126733254.663 6  98753102.46543  24116514.563                    24116519.602
        36.600          19.000
 128956592.868 5 100485686.97743  24539623.742                    24539631.883
        34.600          19.000
 106417077.302 8  82922446.87847  20250496.609                    20250504.254
        51.800          47.900
 119450791.795 7  93078606.77745  22730734.188                    22730741.000
        44.500          33.500
 107383107.794 8  83675199.61947  20434333.281                    20434337.043
        48.300          42.700
 113070975.607 8  88107263.84246  21516690.867                    21516695.445
        48.800          38.300
 113719916.571 8  88612937.86846  21640184.180                    21640188.324
        48.000          39.600
 20  1  1  2 19 30.0000000  0  7G13G32G24G10G20G15G21
 126827070.971 6  98826206.01742  24134366.578                    24134371.953
        36.900          17.800
 128873304.444 5 100420786.90143  24523774.750                    24523781.836
        34.100          19.000
 106392836.895 8  82903558.25147  20245883.828                    20245890.773
        51.600          47.900
 119365790.277 7  93012371.84945  22714559.492                    22714566.012
        43.900          34.000
 107335087.208 8  83637780.98947  20425195.297                    20425199.852
        48.600          42.700
 113139657.069 8  88160781.87046  21529760.602                    21529765.020
        48.200          37.900
 113753180.781 7  88638858.02746  21646514.328                    21646518.133
        47.600          40.200
 20  1  1  2 20  0.0000000  0  7G13G32G24G10G20G15G21
 126920891.426 6  98899312.86042  24152220.227                    24152224.824
        36.400          17.400
 128790120.830 5 100355968.48343  24507944.469                    24507953.414
        35.400          19.000
 106369206.641 8  82885145.06747  20241386.992                    20241394.496
        51.400          47.800
 119280892.943 7  92946218.09645  22698403.414                    22698410.344
        43.900          33.800
 107287426.899 8  83600643.08847  20416126.328                    20416130.469
        48.700          42.200
 113208521.365 8  88214442.35346  21542864.859                    21542869.699
        48.200          39.000
 113786913.115 7  88665142.94546  21652933.234                    21652937.426
        47.700          39.800
 20  1  1  2 20 30.0000000  0  7G13G32G24G10G20G15G21
 127014714.418 6  98972421.64142  24170074.578                    24170079.344
        37.000          17.400
 128707041.956 6 100291231.74743  24492135.641                    24492143.480
        36.100          19.300
 106346187.301 8  82867207.92148  20237006.859                    20237014.098
        51.300          48.100
 119196101.249 7  92880146.65945  22682268.297                    22682275.691
        44.300          34.900
 107240128.124 8  83563786.89847  20407125.648                    20407129.664
        49.000          42.800
 113277567.137 8  88268244.25146  21556003.984                    21556008.559
        48.700          38.700
 113821112.049 7  88691791.45346  21659440.992                    21659445.020
        47.500          40.100
 20  1  1  2 21  0.0000000  0  7G13G32G24G10G20G15G21
 127108542.118 6  99045534.10242  24187929.578                    24187934.305
        36.100          16.300
 128624070.784 6 100226578.86843  24476347.344                    24476354.664
        37.300          19.000
 106323781.799 8  82849749.09848  20232743.016                    20232750.262
        51.600          48.000
 119111419.418 7  92814160.82645  22666153.695                    22666160.590
        44.700          34.500
 107193195.479 8  83527216.01147  20398194.531                    20398198.375
        49.400          43.200
 113346795.865 8  88322188.69846  21569177.344                    21569182.555
        48.200          38.700
 113855778.971 7  88718804.62746  21666038.078                    21666042.035
        47.900          40.400
 20  1  1  2 21 30.0000000  0  7G13G32G24G10G20G15G21
 127202371.348 6  99118647.74842  24205784.273                    24205789.340
        36.600          17.400
 128541205.747 6 100162008.69643  24460577.867                    24460585.512
        36.900          18.600
 106301988.300 8  82832767.14848  20228595.914                    20228603.480
        51.900          48.100
 119026847.178 7  92748260.39945  22650060.352                    22650066.867
        45.300          34.200
 107146629.481 8  83490930.80847  20389332.875                    20389336.848
        48.600          42.900
 113416204.016 8  88376272.95746  21582385.406                    21582390.293
        48.500          38.400
 113890910.983 7  88746180.20546  21672723.664                    21672727.855
        47.800          39.000
 20  1  1  2 22  0.0000000  0  7G13G32G24G10G20G15G21
 127296202.353 5  99191762.78942  24223639.641                    24223644.809
        35.800          16.900
 128458448.125 6 100097522.25443  24444831.008                    24444837.449
        36.800          20.100
 106280808.041 8  82816263.06247  20224565.438                    20224573.027
        52.000          47.800
 118942387.305 7  92682447.53145  22633988.094                    22633995.199
        44.700          35.200
 107100432.753 8  83454933.35947  20380542.469                    20380546.441
        49.100          43.100
 113485792.065 8  88430497.40046  21595628.008                    21595632.625
        48.200          38.100
 113926508.130 7  88773918.23146  21679497.367                    21679501.484
        47.800          39.500
 20  1  1  2 22 30.0000000  0  7G13G32G24G10G20G15G21
 127390032.695 5  99264877.30142  24241494.742                    24241499.664
        35.400          16.900
 128375796.999 6 100033118.78943  24429102.266                    24429109.633
        37.100          19.900
 106260241.202 8  82800236.96148  20220651.406                    20220658.883
        52.300          48.300
 118858040.167 7  92616722.50145  22617937.219                    22617944.805
        45.400          35.800
 107054605.919 8  83419224.14347  20371821.984                    20371825.703
        49.600          43.100
 113555557.348 8  88484859.96346  21608903.203                    21608908.141
        49.000          38.400
 113962567.879 7  88802016.72746  21686359.133                    21686363.539
        47.600          39.900
 20  1  1  2 23  0.0000000  0  7G13G32G24G10G20G15G21
 127483861.464 5  99337990.58842  24259350.102                    24259354.863
        35.800          16.300
 128293252.641 6  99968798.50143  24413394.063                    24413401.578
        36.900          19.300
 106240286.936 8  82784688.18747  20216854.508                    20216861.711
        52.500          47.900
 118773807.454 7  92551086.63745  22601908.719                    22601915.535
        45.000          35.200
 107009150.742 8  83383804.52347  20363171.930                    20363176.000
        48.600          43.000
 113625498.456 8  88539359.53146  21622212.867                    21622217.684
        48.600          37.300
 113999088.982 7  88830474.72046  21693308.961                    21693313.332
        47.500          39.100
 20  1  1  2 23 30.0000000  0  7G13G32G24G10G20G15G21
 127577688.010 6  99411102.22842  24277204.531                    24277209.633
        36.400          16.300
 128210815.794 6  99904561.99443  24397707.266                    24397714.715
        36.900          20.100
 106220946.215 8  82769617.50748  20213174.180                    20213181.629
        51.600          48.400
 118689691.371 7  92485541.65245  22585902.102                    22585908.574
        45.200          35.200
 106964069.617 8  83348676.38047  20354593.359                    20354597.145
        48.700          43.000
 113695614.746 8  88593995.59446  21635555.578                    21635560.434
        48.100          38.100
 114036070.756 7  88859291.67646  21700346.305                    21700350.836
        47.400          40.200
 20  1  1  2 24  0.0000000  0  7G13G32G24G10G20G15G21
 127671512.870 5  99484212.44542  24295059.094                    24295064.172
        35.100          17.800
 128128488.075 6  99840410.56943  24382040.750                    24382049.180
        36.400          19.000
 106202221.537 8  82755026.85147  20209610.922                    20209618.527
        51.700          47.200
 118605694.876 7  92420089.83945  22569917.688                    22569924.805
        45.300          34.000
 106919366.371 7  83313842.68546  20346086.703                    20346090.453
        47.400          41.500
 113765906.138 8  88648768.11646  21648931.773                    21648936.023
        48.300          37.000
 114073513.364 7  88888467.71446  21707471.766                    21707475.813
        47.600          39.200
 20  1  1  2 24 30.0000000  0  7G13G32G24G10G20G15G21
 127765334.675 5  99557320.32142  24312911.867                    24312917.301
        35.300          15.600
 128046269.568 6  99776344.19243  24366395.500                    24366402.422
        38.200          19.900
 106184112.455 8  82740915.89348  20206164.883                    20206172.000
        51.800          48.900
 118521819.550 7  92354732.45046  22553956.891                    22553963.770
        45.500          36.000
 106875042.039 8  83279304.24847  20337651.953                    20337655.941
        48.500          43.500
 113836371.577 8  88703676.24146  21662341.305                    21662345.734
        48.200          38.600
 114111415.173 7  88918001.58846  21714684.094                    21714688.395
        47.300          39.900
 20  1  1  2 25  0.0000000  0  7G13G32G24G10G20G15G21
 127859150.554 5  99630423.59942  24330764.531                    24330770.684
        35.200          16.300
 127964158.250 6  99712361.36343  24350770.375                    24350777.375
        37.200          19.900
 106166616.311 8  82727282.54547  20202835.461                    20202842.961
        52.000          47.700
 118438064.830 7  92289469.04445  22538018.469                    22538025.973
        45.100          35.000
 106831096.458 7  83245060.94147  20329289.305                    20329293.395
        47.900          42.300
 113907007.717 8  88758717.37946  21675782.563                    21675787.426
        48.000          37.200
 114149772.958 7  88947890.75346  21721983.313                    21721987.574
        47.300          38.900
 20  1  1  2 25 30.0000000  0  7G13G32G24G10G20G15G21
 127952959.764 5  99703521.65142  24348616.258                    24348621.945
        35.100          16.300
 127882155.046 6  99648462.75943  24335165.047                    24335173.055
        37.300          20.900
 106149734.497 8  82714127.89548  20199622.930                    20199630.211
        52.300          48.500
 118354432.973 7  92224301.37445  22522104.172                    22522111.105
        45.000          35.800
 106787532.012 7  83211114.62847  20320999.156                    20321003.406
        47.700          42.600
 113977813.781 8  88813890.93346  21689256.547                    21689261.117
        48.200          38.300
 114188586.046 7  88978134.69846  21729369.578                    21729373.469
        47.300          39.200
 20  1  1  2 26  0.0000000  0  7G13G32G24G10G20G15G21
 128046764.467 5  99776616.16142  24366466.938                    24366472.297
        35.200          15.600
 127800263.055 6  99584650.79243  24319581.398                    24319588.500
        37.200          20.600
 106133469.942 8  82701454.21748  20196527.797                    20196534.996
        51.900          48.600
 118270928.632 7  92159233.06646  22506213.328                    22506220.512
        45.300          36.000
 106744353.528 7  83177469.05847  20312782.391                    20312786.332
        47.300          43.800
 114048791.575 8  88869198.29346  21702763.211                    21702767.910
        48.500          38.400
 114227855.541 7  89008734.29046  21736841.594                    21736845.762
        47.100          39.600
 20  1  1  2 26 30.0000000  0  8G13G32G12G24G10G20G15G21
 128140557.642 5  99849701.73642  24384314.688                    24384320.719
        35.400          16.300
 127718476.264 6  99520920.85043  24304018.055                    24304025.234
        38.200          21.300
 132055350.50416 102900309.93252  25129299.109                    25129306.426
        36.700          16.900
 106117816.596 8  82689256.81748  20193548.883                    20193556.336
        53.200          48.400
 118187547.297 7  92094260.60245  22490346.758                    22490353.590
        45.100          35.400
 106701556.464 7  83144120.69747  20304638.781                    20304642.629
        47.900          42.600
 114119933.792 8  88924633.78346  21716301.344                    21716305.660
        48.100          37.800
 114267574.213 7  89039683.89346  21744399.898                    21744404.492
        47.000          38.800
 20  1  1  2 27  0.0000000  0  8G13G32G12G24G10G20G15G21
 128234343.196 5  99922781.37042  24402161.391                    24402167.609
        34.800          16.300
 127636800.172 6  99457277.16643  24288475.047                    24288483.887
        36.600          21.300
 131960922.125 6 102826729.50343  25111330.133                    25111337.156
        37.600          18.600
 106102779.551 8  82677539.64748  20190687.758                    20190695.234
        52.900          48.900
 118104295.908 7  92029389.40546  22474504.742                    22474511.422
        45.700          36.100
 106659148.146 7  83111075.26047  20296568.289                    20296572.578
        47.900          43.400
 114191244.273 8  88980200.38746  21729870.906                    21729875.445
        48.300          37.600
 114307745.791 7  89070986.40346  21752044.430                    21752048.906
        47.600          38.800
 20  1  1  2 27 30.0000000  0  8G13G32G12G24G10G20G15G21
 128328120.609 5  99995854.68142  24420007.164                    24420013.508
        34.300          15.600
 127555235.317 6  99393720.14843  24272953.625                    24272962.602
        38.200          21.700
 131866419.079 6 102753090.88143  25093346.453                    25093353.957
        36.700          19.300
 106088359.423 8  82666303.19248  20187943.953                    20187951.262
        52.300          48.600
 118021176.499 7  91964621.04545  22458687.344                    22458694.027
        45.400          35.800
 106617130.731 8  83078334.41947  20288572.656                    20288576.801
        48.200          43.000
 114262722.222 8  89035897.48646  21743472.391                    21743477.340
        48.200          37.800
 114348369.333 8  89102641.09946  21759775.039                    21759779.250
        48.200          38.400
 20  1  1  2 28  0.0000000  0  8G13G32G12G24G10G20G15G21
 128421886.260 5 100068918.82342  24437849.914                    24437855.535
        35.200          15.600
 127473779.152 6  99330247.78743  24257453.672                    24257461.379
        37.900          21.300
 131771841.805 6 102679394.46842  25075348.438                    25075356.195
        36.600          17.800
 106074553.808 8  82655545.57348  20185316.414                    20185323.813
        52.400          48.900
 117938188.058 7  91899954.73645  22442895.594                    22442901.840
        46.700          35.700
 106575503.201 7  83045897.37247  20280651.594                    20280655.621
        47.600          43.000
 114334363.847 8  89091722.12246  21757105.484                    21757110.297
        48.600          38.100
 114389440.729 7  89134644.76646  21767590.547                    21767594.543
        47.400          39.700
 20  1  1  2 28 30.0000000  0  8G13G32G12G24G10G20G15G21
 128515639.137 5 100141973.06742  24455691.039                    24455695.715
        33.900          14.800
 127392431.736 6  99266860.19143  24241974.391                    24241981.484
        39.000          22.200
 131677193.038 6 102605642.32742  25057337.555                    25057344.867
        37.400          17.400
 106061362.141 8  82645266.36448  20182806.547                    20182813.516
        53.000          48.700
 117855332.212 7  91835391.75846  22427128.078                    22427134.832
        46.300          36.300
 106534267.153 7  83013765.38947  20272804.398                    20272808.070
        47.500          43.100
 114406167.864 8  89147673.29446  21770769.547                    21770774.121
        48.800          36.800
 114430958.358 8  89166996.15346  21775491.398                    21775495.379
        48.700          38.400
 20  1  1  2 29  0.0000000  0  8G13G32G12G24G10G20G15G21
 128609382.446 5 100215019.69142  24473530.406                    24473534.867
        34.300          16.900
 127311197.491 6  99203560.78943  24226516.063                    24226523.344
        39.400          21.800
 131582480.094 6 102531840.22842  25039314.102                    25039321.855
        37.600          17.800
 106048788.390 9  82635468.63848  20180413.609                    20180420.984
        54.000          48.700
 117772614.738 7  91770936.58546  22411387.172                    22411394.598
        47.000          36.600
 106493428.424 8  82981943.01147  20265033.289                    20265037.027
        48.600          43.000
 114478137.186 8  89203753.25846  21784464.625                    21784469.762
        48.900          36.900
 114472924.785 8  89199697.24246  21783477.125                    21783481.340
        48.200          38.800
 20  1  1  2 29 30.0000000  0  8G13G32G12G24G10G20G15G21
 128703111.674 5 100288055.48742  24491365.688                    24491370.805
        33.700          14.800
 127230073.006 6  99140346.89743  24211078.477                    24211085.934
        39.000          22.500
 131487701.918 6 102457987.30843  25021278.430                    25021285.648
        37.800          18.600
 106036829.426 8  82626149.97248  20178137.891                    20178144.891
        53.900          48.800
 117690033.892 7  91706587.88846  22395673.438                    22395680.469
        46.800          37.000
 106452985.383 7  82950428.95847  20257337.367                    20257340.848
        47.600          43.000
 114550267.012 8  89259958.30746  21798190.742                    21798195.484
        48.800          37.000
 114515335.021 8  89232744.16746  21791547.633                    21791551.738
        48.300          39.100
 20  1  1  2 30  0.0000000  0  8G13G32G12G24G10G20G15G21
 128796824.706 5 100361078.53342  24509198.898                    24509203.680
        34.300          14.800
 127149057.456 6  99077217.91643  24195661.117                    24195669.277
        39.400          21.800
 131392860.577 6 102384085.14443  25003230.094                    25003237.680
        36.800          18.300
 106025483.571 8  82617309.05148  20175978.781                    20175986.113
        53.700          48.800
 117607590.364 7  91642346.19646  22379984.602                    22379991.547
        47.200          37.200
 106412938.767 8  82919223.80347  20249716.328                    20249720.227
        48.800          43.100
 114622555.239 8  89316286.78146  21811946.727                    21811952.039
        49.300          37.300
 114558186.477 8  89266134.90046  21799701.984                    21799706.203
        48.700          38.900
 20  1  1  2 30 30.0000000  0  8G13G32G12G24G10G20G15G21
 128890525.442 5 100434092.09442  24527029.406                    24527034.941
        33.200          15.600
 127068155.833 6  99014177.67443  24180265.922                    24180273.820
        39.000          22.800
 131297963.389 6 102310139.51443  24985172.563                    24985179.090
        38.400          18.600
 106014756.075 8  82608949.97848  20173937.305                    20173944.582
        53.300          48.600
 117525290.713 7  91578216.61346  22364323.289                    22364330.457
        47.600          37.100
 106373295.442 7  82888332.89047  20242172.609                    20242176.270
        47.900          43.600
 114695005.477 8  89372741.49346  21825733.477                    21825738.680
        48.200          37.000
 114601482.948 7  89299872.39546  21807940.727                    21807945.031
        47.900          38.600
 20  1  1  2 31  0.0000000  0  8G13G32G12G24G10G20G15G21
 128984209.207 5 100507092.49542  24544856.789                    24544862.691
        33.200          15.600
 126987364.382 6  98951223.30443  24164892.594                    24164900.059
        39.500          22.900
 131203009.774 6 102236149.86843  24967103.023                    24967110.102
        37.200          18.600
 106004642.204 8  82601069.04648  20172012.828                    20172019.980
        53.600          48.800
 117443132.778 7  91514197.44946  22348689.172                    22348696.559
        47.300          37.700
 106334053.057 8  82857754.40947  20234705.063                    20234708.965
        48.500          44.100
 114767612.529 8  89429318.41146  21839550.297                    21839555.488
        48.200          37.100
 114645218.408 7  89333951.95946  21816263.641                    21816267.383
        47.800          38.400
 20  1  1  2 31 30.0000000  0  8G13G32G12G24G10G20G15G21
 129077875.232 5 100580079.01542  24562681.156                    24562687.363
        33.000          15.600
 126906683.531 6  98888355.12643  24149539.242                    24149546.820
        38.700          23.400
 131108002.827 6 102162118.61443  24949024.305                    24949030.176
        37.500          18.300
 105995142.505 8  82593666.69048  20170205.148                    20170212.473
        53.700          48.500
 117361118.520 7  91450290.24546  22333082.820                    22333089.629
        47.600          38.000
 106295213.627 8  82827489.91347  20227314.320                    20227318.078
        48.900          43.600
 114840375.593 8  89486016.88546  21853396.430                    21853401.426
        48.000          36.100
 114689392.015 7  89368372.93146  21824669.898                    21824673.781
        47.900          38.400
 20  1  1  2 32  0.0000000  0  8G13G32G12G24G10G20G15G21
 129171525.518 5 100653053.24442  24580502.578                    24580507.340
        33.900          14.800
 126826116.194 6  98825575.37643  24134207.563                    24134215.484
        39.800          22.900
 131012948.118 5 102088050.17643  24930934.797                    24930941.805
        34.800          18.300
 105986259.100 8  82586744.56548  20168514.508                    20168521.957
        52.900          48.800
 117279252.462 7  91386498.52346  22317504.125                    22317511.184
        47.000          38.300
 106256781.491 8  82797542.78747  20220000.438                    20220004.625
        48.800          43.200
 114913296.414 7  89542838.28546  21867272.508                    21867277.648
        47.900          36.700
 114734004.419 7  89403135.83346  21833159.289                    21833162.961
        47.300          38.600
 20  1  1  2 32 30.0000000  0  8G13G32G12G24G10G20G15G21
 129265154.806 5 100726011.13042  24598319.000                    24598324.645
        33.400          15.600
 126745658.145 6  98762880.79543  24118896.641                    24118905.082
        39.400          23.000
 130917844.847 5 102013943.89742  24912837.547                    24912843.598
        35.900          17.800
 105977987.919 8  82580299.49848  20166940.266                    20166947.520
        53.100          48.000
 117197532.071 7  91322820.30546  22301953.055                    22301960.172
        47.600          37.300
 106218754.123 8  82767911.06447  20212764.375                    20212768.305
        49.200          42.800
 114986369.333 7  89599778.20845  21881178.242                    21881183.457
        47.500          35.600
 114779049.880 7  89438236.17746  21841730.977                    21841734.789
        46.800          37.900
 20  1  1  2 33  0.0000000  0  8G13G32G12G24G10G20G15G21
 129358765.415 5 100798954.34242  24616132.945                    24616137.578
        33.400          15.600
 126665313.007 6  98700274.19343  24103607.586                    24103615.871
        39.000          22.900
 130822698.595 6 101939804.09343  24894731.891                    24894738.484
        36.000          18.300
 105970331.412 8  82574333.39548  20165483.641                    20165491.031
        53.700          48.800
 117115962.434 7  91259259.55746  22286431.070                    22286437.891
        47.300          38.200
 106181136.577 8  82738598.69047  20205606.164                    20205609.746
        49.100          43.400
 115059596.681 8  89656838.46446  21895113.008                    21895118.070
        48.300          36.700
 114824530.299 7  89473675.44646  21850385.750                    21850389.750
        47.300          38.500
 20  1  1  2 33 30.0000000  0  8G13G32G12G24G10G20G15G21
 129452356.423 5                  24633941.328
        31.800
 126585080.792 6  98637755.58343  24088340.516                    24088348.098
        39.200          22.600
 130727512.612 6 101865633.29143  24876618.383                    24876625.188
        36.700          19.000
 105963289.993 8  82568846.58448  20164143.375                    20164150.934
        53.500          48.000
 117034545.302 7  91195817.64146  22270937.531                    22270944.719
        47.100          36.900
 106143930.619 8  82709607.03947  20198526.000                    20198529.695
        48.600          43.000
 115132977.345 7  89714018.19746  21909076.859                    21909081.816
        47.300          36.200
 114870443.856 7  89509452.23146  21859122.531                    21859126.652
        46.600          37.400
 20  1  1  2 34  0.0000000  0  8G13G32G12G24G10G20G15G21
 129545928.630 5 100944808.81252  24651749.336                    24651753.762
        31.800          15.600
 126504963.391 6  98575326.43344  24073094.805                    24073102.266
        39.900          25.800
 130632291.134 6 101791434.84443  24858498.422                    24858504.871
        36.100          18.300
 105956864.669 8  82563839.85348  20162920.875                    20162928.168
        52.300          48.700
 116953284.121 7  91132497.24946  22255474.117                    22255481.168
        47.400          37.500
 106107139.764 8  82680938.84147  20191525.070                    20191528.734
        48.500          43.500
 115206511.539 7  89771317.55446  21923069.883                    21923074.973
        47.000          36.600
 114916790.878 7  89545566.77746  21867942.055                    21867946.379
        46.400          38.100
